"","school","city","stateProvince","country","schoolcitystate","schoolcitystate2","lon","lat"
"1","Bev Facey","Sherwood Park","AB","Canada","Bev Facey, Sherwood Park, AB","Bev Facey, Sherwood Park, AB",-113.2690327,53.5249142
"2","Clearwater Academy International",NA,"AB","Canada","Clearwater Academy International, NA, AB","Clearwater Academy International, AB",-82.7955034,27.9678526
"3","Lethbridge Collegiate Institute","Calgary","AB","Canada","Lethbridge Collegiate Institute, Calgary, AB","Lethbridge Collegiate Institute, Calgary, AB",-112.8173346,49.6941101
"4","Notre Dame High School","Calgary","AB","Canada","Notre Dame High School, Calgary, AB","Notre Dame High School, Calgary, AB",-114.067011,51.156637
"5","Bartlett","Elmendorf Afb","AK","USA","Bartlett, Elmendorf Afb, AK","Bartlett, Elmendorf Afb, AK",-149.7334299,61.2320185
"6","Colony","Palmer","AK","USA","Colony, Palmer, AK","Colony, Palmer, AK",-149.1127576,61.6028721
"7","East","Anchorage","AK","USA","East, Anchorage, AK","East, Anchorage, AK",-149.8914297,61.2127257
"8","North Pole","North Pole","AK","USA","North Pole, North Pole, AK","North Pole, North Pole, AK",-147.3494443,64.7511111
"9","Service","Anchorage","AK","USA","Service, Anchorage, AK","Service, Anchorage, AK",-149.9503255,61.1576239
"10","St. Mary's School","Saint Marys","AK","USA","St. Mary's School, Saint Marys, AK","St. Mary's School, Saint Marys, AK",-163.1784855,62.0534406
"11","Wasilla","Wasilla","AK","USA","Wasilla, Wasilla, AK","Wasilla, Wasilla, AK",-149.4410598,61.5808763
"12","West","Anchorage","AK","USA","West, Anchorage, AK","West, Anchorage, AK",-149.8637929,61.2248279
"13","Acts Academy","Valley","AL","USA","Acts Academy, Valley, AL","Acts Academy, Valley, AL",-85.1935219,32.8179883
"14","Akron Comm Sch East","Akron","AL","USA","Akron Comm Sch East, Akron, AL","Akron Comm Sch East, Akron, AL",-87.7340795,32.8736724
"15","Albert P Brewer","Somerville","AL","USA","Albert P Brewer, Somerville, AL","Albert P Brewer, Somerville, AL",-86.7053107,34.4133327
"16","Albertville","Albertville","AL","USA","Albertville, Albertville, AL","Albertville, Albertville, AL",-86.2088669,34.2675937
"17","Aliceville","Aliceville","AL","USA","Aliceville, Aliceville, AL","Aliceville, Aliceville, AL",-88.1514166,33.1295681
"18","Alma Bryant","Irvington","AL","USA","Alma Bryant, Irvington, AL","Alma Bryant, Irvington, AL",-88.2802056,30.4420967
"19","Amelia L. Johnson Sch","Thomaston","AL","USA","Amelia L. Johnson Sch, Thomaston, AL","Amelia L. Johnson Sch, Thomaston, AL",-87.6339554,32.2807126
"20","American Christian","Tuscaloosa","AL","USA","American Christian, Tuscaloosa, AL","American Christian, Tuscaloosa, AL",-87.5079894,33.1994604
"21","Andalusia","Andalusia","AL","USA","Andalusia, Andalusia, AL","Andalusia, Andalusia, AL",-86.4832913,31.3085039
"22","Anniston Sch","Anniston","AL","USA","Anniston Sch, Anniston, AL","Anniston Sch, Anniston, AL",-85.8226438,33.7081397
"23","Ariton Sch","Ariton","AL","USA","Ariton Sch, Ariton, AL","Ariton Sch, Ariton, AL",-85.7210568,31.6021893
"24","Ashford Sch","Ashford","AL","USA","Ashford Sch, Ashford, AL","Ashford Sch, Ashford, AL",-85.232457,31.183804
"25","Ashville","Ashville","AL","USA","Ashville, Ashville, AL","Ashville, Ashville, AL",-86.2544223,33.8370433
"26","Athens","Athens","AL","USA","Athens, Athens, AL","Athens, Athens, AL",-86.9716741,34.8028661
"27","Auburn","Auburn","AL","USA","Auburn, Auburn, AL","Auburn, Auburn, AL",-85.4807825,32.6098566
"28","Austin","Decatur","AL","USA","Austin, Decatur, AL","Austin, Decatur, AL",-87.0075914,34.5794759
"29","Autauga Academy","Prattville","AL","USA","Autauga Academy, Prattville, AL","Autauga Academy, Prattville, AL",-86.5424657,32.4714971
"30","Autaugaville Sch","Autaugaville","AL","USA","Autaugaville Sch, Autaugaville, AL","Autaugaville Sch, Autaugaville, AL",-86.660366,32.4346876
"31","Baker","Mobile","AL","USA","Baker, Mobile, AL","Baker, Mobile, AL",-88.2522215,30.6695103
"32","Baldwin Co Sch","Bay Minette","AL","USA","Baldwin Co Sch, Bay Minette, AL","Baldwin Co Sch, Bay Minette, AL",-87.7875637,30.9125347
"33","Baldwin County","Bay Minette","AL","USA","Baldwin County, Bay Minette, AL","Baldwin County, Bay Minette, AL",-87.7730474,30.8829628
"34","Barbour Co Sch","Clayton","AL","USA","Barbour Co Sch, Clayton, AL","Barbour Co Sch, Clayton, AL",-85.446231,31.868866
"35","Bayside Academy","Daphne","AL","USA","Bayside Academy, Daphne, AL","Bayside Academy, Daphne, AL",-87.9111082,30.6022196
"36","Beauregard","Opelika","AL","USA","Beauregard, Opelika, AL","Beauregard, Opelika, AL",-85.3717696,32.5503563
"37","Ben C Rain Sch","Mobile","AL","USA","Ben C Rain Sch, Mobile, AL","Ben C Rain Sch, Mobile, AL",-88.0735688,30.6075638
"38","Benjamin Russell Sch","Alexander City","AL","USA","Benjamin Russell Sch, Alexander City, AL","Benjamin Russell Sch, Alexander City, AL",-85.9504932,32.9379599
"39","Berry Sch","Berry","AL","USA","Berry Sch, Berry, AL","Berry Sch, Berry, AL",-87.6011905,33.6642465
"40","Bessemer Academy","Hueytown","AL","USA","Bessemer Academy, Hueytown, AL","Bessemer Academy, Hueytown, AL",-86.991878,33.354906
"41","Bessemer Academy","Tuscaloosa","AL","USA","Bessemer Academy, Tuscaloosa, AL","Bessemer Academy, Tuscaloosa, AL",-86.991878,33.354906
"42","Bessemer City","Bessemer","AL","USA","Bessemer City, Bessemer, AL","Bessemer City, Bessemer, AL",-86.954437,33.4017766
"43","Bibb Co Sch","Centreville","AL","USA","Bibb Co Sch, Centreville, AL","Bibb Co Sch, Centreville, AL",-87.1422895,32.9562798
"44","Blount","Eight Mile","AL","USA","Blount, Eight Mile, AL","Blount, Eight Mile, AL",-88.1789417,30.7788699
"45","Blount","Mobile","AL","USA","Blount, Mobile, AL","Blount, Mobile, AL",-88.1789417,30.7788699
"46","Boaz Sch","Boaz","AL","USA","Boaz Sch, Boaz, AL","Boaz Sch, Boaz, AL",-86.1644937,34.2113704
"47","Bob Jones","Madison","AL","USA","Bob Jones, Madison, AL","Bob Jones, Madison, AL",-86.7422009,34.719135
"48","Booker T Washington","Tuskegee","AL","USA","Booker T Washington, Tuskegee, AL","Booker T Washington, Tuskegee, AL",-85.7334814,32.3996867
"49","Brantley","Brantley","AL","USA","Brantley, Brantley, AL","Brantley, Brantley, AL",-86.2571786,31.5823832
"50","Brantley Elem Sch","Selma","AL","USA","Brantley Elem Sch, Selma, AL","Brantley Elem Sch, Selma, AL",-86.9608986,32.4241531
"51","Briarwood Christian","Birmingham","AL","USA","Briarwood Christian, Birmingham, AL","Briarwood Christian, Birmingham, AL",-86.6898277,33.3916602
"52","Brindlee Mt Sch","Guntersville","AL","USA","Brindlee Mt Sch, Guntersville, AL","Brindlee Mt Sch, Guntersville, AL",-86.4224872,34.3761508
"53","Brooks","Killen","AL","USA","Brooks, Killen, AL","Brooks, Killen, AL",-87.494043,34.8580671
"54","Brookwood Sch","Brookwood","AL","USA","Brookwood Sch, Brookwood, AL","Brookwood Sch, Brookwood, AL",-87.3152037,33.2598688
"55","Buckhorn","New Market","AL","USA","Buckhorn, New Market, AL","Buckhorn, New Market, AL",-86.4555737,34.8704143
"56","Calera","Calera","AL","USA","Calera, Calera, AL","Calera, Calera, AL",-86.7535975,33.1028965
"57","Carroll Sch","Ozark","AL","USA","Carroll Sch, Ozark, AL","Carroll Sch, Ozark, AL",-85.6260619,31.4596105
"58","Carver","Montgomery","AL","USA","Carver, Montgomery, AL","Carver, Montgomery, AL",-86.324841,32.3489635
"59","Cedar Bluff Sch","Cedar Bluff","AL","USA","Cedar Bluff Sch, Cedar Bluff, AL","Cedar Bluff Sch, Cedar Bluff, AL",-85.6039713,34.2195243
"60","Central","Phenix City","AL","USA","Central, Phenix City, AL","Central, Phenix City, AL",-85.0395037,32.4849608
"61","Central Sch","Florence","AL","USA","Central Sch, Florence, AL","Central Sch, Florence, AL",-87.7978487,34.8969468
"62","Central Sch","Rockford","AL","USA","Central Sch, Rockford, AL","Central Sch, Rockford, AL",-86.2222814,32.8875301
"63","Central Sch","Tuscaloosa","AL","USA","Central Sch, Tuscaloosa, AL","Central Sch, Tuscaloosa, AL",-87.5756473,33.1995228
"64","Charles Henderson Sch","Troy","AL","USA","Charles Henderson Sch, Troy, AL","Charles Henderson Sch, Troy, AL",-85.9471008,31.8028673
"65","Chelsea Sch","Chelsea","AL","USA","Chelsea Sch, Chelsea, AL","Chelsea Sch, Chelsea, AL",-86.6356681,33.3345831
"66","Cherokee Co Sch","Centre","AL","USA","Cherokee Co Sch, Centre, AL","Cherokee Co Sch, Centre, AL",-85.684578,34.1665322
"67","Chickasaw","Chickasaw","AL","USA","Chickasaw, Chickasaw, AL","Chickasaw, Chickasaw, AL",-88.0747222,30.7637991
"68","Chilton Co Sch","Clanton","AL","USA","Chilton Co Sch, Clanton, AL","Chilton Co Sch, Clanton, AL",-86.6130254,32.8260519
"69","Choctaw County","Butler","AL","USA","Choctaw County, Butler, AL","Choctaw County, Butler, AL",-88.2219652,32.0895908
"70","Citronelle Sch","Citronelle","AL","USA","Citronelle Sch, Citronelle, AL","Citronelle Sch, Citronelle, AL",-88.2375372,31.0949327
"71","Clarke County","Grove Hill","AL","USA","Clarke County, Grove Hill, AL","Clarke County, Grove Hill, AL",-87.7772218,31.7087681
"72","Clay Central","Lineville","AL","USA","Clay Central, Lineville, AL","Clay Central, Lineville, AL",-85.7874336,33.2907082
"73","Clay Co","Ashland","AL","USA","Clay Co, Ashland, AL","Clay Co, Ashland, AL",-85.8360741,33.2737256
"74","Clay-Chalkville","Pinson","AL","USA","Clay-Chalkville, Pinson, AL","Clay-Chalkville, Pinson, AL",-86.6023597,33.6954677
"75","Clay-Chalkville High School","Pinson","AL","USA","Clay-Chalkville High School, Pinson, AL","Clay-Chalkville High School, Pinson, AL",-86.6023597,33.6954677
"76","Cleburne Co Sch","Heflin","AL","USA","Cleburne Co Sch, Heflin, AL","Cleburne Co Sch, Heflin, AL",-85.5719129,33.6481359
"77","Coffeeville Sch","Coffeeville","AL","USA","Coffeeville Sch, Coffeeville, AL","Coffeeville Sch, Coffeeville, AL",-88.0649188,31.7496381
"78","Colbert Co Sch","Leighton","AL","USA","Colbert Co Sch, Leighton, AL","Colbert Co Sch, Leighton, AL",-87.5246864,34.6958606
"79","Columbia","Huntsville","AL","USA","Columbia, Huntsville, AL","Columbia, Huntsville, AL",-86.699266,34.723229
"80","Coosa Valley Academy","Harpersville","AL","USA","Coosa Valley Academy, Harpersville, AL","Coosa Valley Academy, Harpersville, AL",-86.4301993,33.3349038
"81","Cordova","Cordova","AL","USA","Cordova, Cordova, AL","Cordova, Cordova, AL",-87.1833349,33.7598291
"82","Cottonwood Sch","Cottonwood","AL","USA","Cottonwood Sch, Cottonwood, AL","Cottonwood Sch, Cottonwood, AL",-85.3020754,31.057898
"83","Cullman Sch","Cullman","AL","USA","Cullman Sch, Cullman, AL","Cullman Sch, Cullman, AL",-86.8418216,34.1885944
"84","Dadeville","Dadeville","AL","USA","Dadeville, Dadeville, AL","Dadeville, Dadeville, AL",-85.7635692,32.831238
"85","Dale County Christian","Ozark","AL","USA","Dale County Christian, Ozark, AL","Dale County Christian, Ozark, AL",-85.5733908,31.4226563
"86","Daleville Sch","Daleville","AL","USA","Daleville Sch, Daleville, AL","Daleville Sch, Daleville, AL",-85.7113,31.3149
"87","Daleville Sch","Daleville","AL","USA","NA, Daleville, AL","Daleville, AL",-85.7129908,31.3101719
"88","Dallas County","Plantersville","AL","USA","Dallas County, Plantersville, AL","Dallas County, Plantersville, AL",-86.9244334,32.6567975
"89","Daphne","Daphne","AL","USA","Daphne, Daphne, AL","Daphne, Daphne, AL",-87.9036047,30.6035255
"90","Decatur","Decatur","AL","USA","Decatur, Decatur, AL","Decatur, Decatur, AL",-86.9718438,34.5242042
"91","Demopolis","Demopolis","AL","USA","Demopolis, Demopolis, AL","Demopolis, Demopolis, AL",-87.836402,32.5176361
"92","Deshler Sch","Tuscumbia","AL","USA","Deshler Sch, Tuscumbia, AL","Deshler Sch, Tuscumbia, AL",-87.7016101,34.7386085
"93","Dora","Dora","AL","USA","Dora, Dora, AL","Dora, Dora, AL",-87.0902772,33.728717
"94","Dothan","Dothan","AL","USA","Dothan, Dothan, AL","Dothan, Dothan, AL",-85.3904888,31.2232313
"95","East Limestone","Athens","AL","USA","East Limestone, Athens, AL","East Limestone, Athens, AL",-86.8325272,34.8168783
"96","Edgewood Academy","Elmore","AL","USA","Edgewood Academy, Elmore, AL","Edgewood Academy, Elmore, AL",-86.2928408,32.5484932
"97","Elba","Elba","AL","USA","Elba, Elba, AL","Elba, Elba, AL",-86.0677243,31.4146108
"98","Elba Sch","Elba","AL","USA","Elba Sch, Elba, AL","Elba Sch, Elba, AL",-86.1033815,31.4272981
"99","Elmore Co Sch","Eclectic","AL","USA","Elmore Co Sch, Eclectic, AL","Elmore Co Sch, Eclectic, AL",-86.2158497,32.6161498
"100","Enterprise","Enterprise","AL","USA","Enterprise, Enterprise, AL","Enterprise, Enterprise, AL",-85.8202529,31.3275478
"101","Erwin Sch","Birmingham","AL","USA","Erwin Sch, Birmingham, AL","Erwin Sch, Birmingham, AL",-86.6982328,33.6465774
"102","Escambia Academy","Atmore","AL","USA","Escambia Academy, Atmore, AL","Escambia Academy, Atmore, AL",-87.407951,31.029847
"103","Escambia Co Sch","Atmore","AL","USA","Escambia Co Sch, Atmore, AL","Escambia Co Sch, Atmore, AL",-87.4918876,31.0175852
"104","Etowah","Attalla","AL","USA","Etowah, Attalla, AL","Etowah, Attalla, AL",-86.0885852,34.0217639
"105","Eufaula","Eufaula","AL","USA","Eufaula, Eufaula, AL","Eufaula, Eufaula, AL",-85.1742202,31.8275101
"106","Fairfield Preparatory Sch","Fairfield","AL","USA","Fairfield Preparatory Sch, Fairfield, AL","Fairfield Preparatory Sch, Fairfield, AL",-86.9082481,33.4912583
"107","Fairfield Preparatory School","Fairfield","AL","USA","Fairfield Preparatory School, Fairfield, AL","Fairfield Preparatory School, Fairfield, AL",-86.9148132,33.4744807
"108","Fairhope","Fairhope","AL","USA","Fairhope, Fairhope, AL","Fairhope, Fairhope, AL",-87.9033261,30.5229719
"109","Faith Academy","Mobile","AL","USA","Faith Academy, Mobile, AL","Faith Academy, Mobile, AL",-88.2445746,30.7027574
"110","Fayette County","Fayette","AL","USA","Fayette County, Fayette, AL","Fayette County, Fayette, AL",-87.7763333,33.6871392
"111","Flomaton Sch","Flomaton","AL","USA","Flomaton Sch, Flomaton, AL","Flomaton Sch, Flomaton, AL",-87.2690495,31.0059355
"112","Flomaton Sch","Flomaton","AL","USA","NA, Flomaton, AL","Flomaton, AL",-87.260807,31.000182
"113","Florence","Florence","AL","USA","Florence, Florence, AL","Florence, Florence, AL",-87.677251,34.79981
"114","Foley","Foley","AL","USA","Foley, Foley, AL","Foley, Foley, AL",-87.6835974,30.4065868
"115","Fort Payne","Fort Payne","AL","USA","Fort Payne, Fort Payne, AL","Fort Payne, Fort Payne, AL",-85.7196893,34.4442547
"116","Fultondale","Birmingham","AL","USA","Fultondale, Birmingham, AL","Fultondale, Birmingham, AL",-86.7967857,33.6102837
"117","Gadsden City","Gadsden","AL","USA","Gadsden City, Gadsden, AL","Gadsden City, Gadsden, AL",-86.0066386,34.014264
"118","Gardendale Sch","Gardendale","AL","USA","Gardendale Sch, Gardendale, AL","Gardendale Sch, Gardendale, AL",-86.8179238,33.647223
"119","Gaston Sch","Gadsden","AL","USA","Gaston Sch, Gadsden, AL","Gaston Sch, Gadsden, AL",-85.9279238,34.0689073
"120","George Washington Carver","Birmingham","AL","USA","George Washington Carver, Birmingham, AL","George Washington Carver, Birmingham, AL",-86.8268529,33.5571297
"121","Georgiana Sch","Georgiana","AL","USA","Georgiana Sch, Georgiana, AL","Georgiana Sch, Georgiana, AL",-86.7285847,31.6280598
"122","Glenwood School","Phenix City","AL","USA","Glenwood School, Phenix City, AL","Glenwood School, Phenix City, AL",-85.0497452,32.5370292
"123","Gordo","Gordo","AL","USA","Gordo, Gordo, AL","Gordo, Gordo, AL",-87.9027962,33.3201178
"124","Gordo Sch","Gordo","AL","USA","Gordo Sch, Gordo, AL","Gordo Sch, Gordo, AL",-87.9068547,33.3249637
"125","Goshen","Goshen","AL","USA","Goshen, Goshen, AL","Goshen, Goshen, AL",-86.1182882,31.7229352
"126","Goshen Sch","Goshen","AL","USA","Goshen Sch, Goshen, AL","Goshen Sch, Goshen, AL",-86.1242048,31.7226798
"127","Greene County","Eutaw","AL","USA","Greene County, Eutaw, AL","Greene County, Eutaw, AL",-87.8875145,32.8406848
"128","Greensboro West","Greensboro","AL","USA","Greensboro West, Greensboro, AL","Greensboro West, Greensboro, AL",-87.5882996,32.7079616
"129","Greenville","Greenville","AL","USA","Greenville, Greenville, AL","Greenville, Greenville, AL",-86.6199981,31.8451189
"130","Greenville","Montgomery","AL","USA","Greenville, Montgomery, AL","Greenville, Montgomery, AL",-86.2759519,32.3767668
"131","Gulf Shores Sch","Leroy","AL","USA","Gulf Shores Sch, Leroy, AL","Gulf Shores Sch, Leroy, AL",-87.6826328,30.2696411
"132","Guntersville Sch","Guntersville","AL","USA","Guntersville Sch, Guntersville, AL","Guntersville Sch, Guntersville, AL",-86.313529,34.3199401
"133","Haleyville Sch","Haleyville","AL","USA","Haleyville Sch, Haleyville, AL","Haleyville Sch, Haleyville, AL",-87.6048658,34.2255535
"134","Handley","Roanoke","AL","USA","Handley, Roanoke, AL","Handley, Roanoke, AL",-85.372701,33.149055
"135","Hartselle","Hartselle","AL","USA","Hartselle, Hartselle, AL","Hartselle, Hartselle, AL",-86.9352842,34.4434282
"136","Hartselle Sch","Hartselle","AL","USA","Hartselle Sch, Hartselle, AL","Hartselle Sch, Hartselle, AL",-86.9212357,34.4552687
"137","Hayden","Hayden","AL","USA","Hayden, Hayden, AL","Hayden, Hayden, AL",-86.757773,33.8926003
"138","Hazel Green","Hazel Green","AL","USA","Hazel Green, Hazel Green, AL","Hazel Green, Hazel Green, AL",-86.5719383,34.9323102
"139","Hewitt-Trussville","Trussville","AL","USA","Hewitt-Trussville, Trussville, AL","Hewitt-Trussville, Trussville, AL",-86.590742,33.6658001
"140","Highland Home Sch","Highland Home","AL","USA","Highland Home Sch, Highland Home, AL","Highland Home Sch, Highland Home, AL",-86.3131159,31.9529407
"141","Hillcrest","Evergreen","AL","USA","Hillcrest, Evergreen, AL","Hillcrest, Evergreen, AL",-86.9370613,31.4309505
"142","Hillcrest","Tuscaloosa","AL","USA","Hillcrest, Tuscaloosa, AL","Hillcrest, Tuscaloosa, AL",-87.5376057,33.1299227
"143","Homewood","Birmingham","AL","USA","Homewood, Birmingham, AL","Homewood, Birmingham, AL",-86.8008228,33.4717732
"144","Hoover","Birmingham","AL","USA","Hoover, Birmingham, AL","Hoover, Birmingham, AL",-86.8113781,33.4053867
"145","Hoover","Hoover","AL","USA","Hoover, Hoover, AL","Hoover, Hoover, AL",-86.8113781,33.4053867
"146","Houston Academy","Dothan","AL","USA","Houston Academy, Dothan, AL","Houston Academy, Dothan, AL",-85.4486527,31.244063
"147","Houston Co Sch","Columbia","AL","USA","Houston Co Sch, Columbia, AL","Houston Co Sch, Columbia, AL",-85.1132884,31.2937712
"148","Hueytown","Hueytown","AL","USA","Hueytown, Hueytown, AL","Hueytown, Hueytown, AL",-86.9966606,33.4512197
"149","Huffman","Birmingham","AL","USA","Huffman, Birmingham, AL","Huffman, Birmingham, AL",-86.6732746,33.5988322
"150","Huntsville","Huntsville","AL","USA","Huntsville, Huntsville, AL","Huntsville, Huntsville, AL",-86.5861037,34.7303688
"151","IMG Academy","Tuscaloosa","AL","USA","IMG Academy, Tuscaloosa, AL","IMG Academy, Tuscaloosa, AL",-82.6086662,27.4408534
"152","J.O. Johnson","Huntsville","AL","USA","J.O. Johnson, Huntsville, AL","J.O. Johnson, Huntsville, AL",-86.609141,34.79933
"153","Jackson","Jackson","AL","USA","Jackson, Jackson, AL","Jackson, Jackson, AL",-87.8944435,31.5090521
"154","Jackson-Olin","Birmingham","AL","USA","Jackson-Olin, Birmingham, AL","Jackson-Olin, Birmingham, AL",-86.8921028,33.5184546
"155","Jacksonville Sch","Jacksonville","AL","USA","Jacksonville Sch, Jacksonville, AL","Jacksonville Sch, Jacksonville, AL",-85.7615379,33.8076125
"156","James Clemens","Madison","AL","USA","James Clemens, Madison, AL","James Clemens, Madison, AL",-86.7913915,34.7061372
"157","Jefferson Davis","Montgomery","AL","USA","Jefferson Davis, Montgomery, AL","Jefferson Davis, Montgomery, AL",-86.2623623,32.3432433
"158","Jemison","Huntsville","AL","USA","Jemison, Huntsville, AL","Jemison, Huntsville, AL",-86.615988,34.786504
"159","Jemison","Jemison","AL","USA","Jemison, Jemison, AL","Jemison, Jemison, AL",-86.7466522,32.9598451
"160","Jess Lanier","Hueytown","AL","USA","Jess Lanier, Hueytown, AL","Jess Lanier, Hueytown, AL",-86.9966606,33.4512197
"161","John Carroll Catholic","Birmingham","AL","USA","John Carroll Catholic, Birmingham, AL","John Carroll Catholic, Birmingham, AL",-86.8325202,33.4437654
"162","John L Leflore Preparatory Acad","Mobile","AL","USA","John L Leflore Preparatory Acad, Mobile, AL","John L Leflore Preparatory Acad, Mobile, AL",-88.0870103,30.7145083
"163","John S Shaw Sch","Mobile","AL","USA","John S Shaw Sch, Mobile, AL","John S Shaw Sch, Mobile, AL",-88.1837833,30.7174109
"164","John T Morgan Academy","Selma","AL","USA","John T Morgan Academy, Selma, AL","John T Morgan Academy, Selma, AL",-87.0763963,32.3898673
"165","Kingwood Christian","Tuscaloosa","AL","USA","Kingwood Christian, Tuscaloosa, AL","Kingwood Christian, Tuscaloosa, AL",-86.8235401,33.2641782
"166","La Lumiere School","Birmingham","AL","USA","La Lumiere School, Birmingham, AL","La Lumiere School, Birmingham, AL",-86.7141761,41.7054471
"167","Lafayette Sch","Lafayette","AL","USA","Lafayette Sch, Lafayette, AL","Lafayette Sch, Lafayette, AL",-85.3965592,32.8994617
"168","Lanett","Lanett","AL","USA","Lanett, Lanett, AL","Lanett, Lanett, AL",-85.1904971,32.8687391
"169","Lanett Senior Sch","Lanett","AL","USA","Lanett Senior Sch, Lanett, AL","Lanett Senior Sch, Lanett, AL",-85.1970425,32.8565288
"170","Lanier","Montgomery","AL","USA","Lanier, Montgomery, AL","Lanier, Montgomery, AL",-86.3099816,32.3558261
"171","Lauderdale Co Sch","Rogersville","AL","USA","Lauderdale Co Sch, Rogersville, AL","Lauderdale Co Sch, Rogersville, AL",-87.2895739,34.8286364
"172","Lawrence County","Moulton","AL","USA","Lawrence County, Moulton, AL","Lawrence County, Moulton, AL",-87.2933533,34.4812062
"173","Lee","Huntsville","AL","USA","Lee, Huntsville, AL","Lee, Huntsville, AL",-86.5780755,34.7556916
"174","Leeds","Leeds","AL","USA","Leeds, Leeds, AL","Leeds, Leeds, AL",-86.5444288,33.5481597
"175","Lee-scott Academy","Auburn","AL","USA","Lee-scott Academy, Auburn, AL","Lee-scott Academy, Auburn, AL",-85.4500737,32.6375663
"176","Leroy Sch","Leroy","AL","USA","Leroy Sch, Leroy, AL","Leroy Sch, Leroy, AL",-87.9708442,31.5031437
"177","Lincoln Sch","Lincoln","AL","USA","Lincoln Sch, Lincoln, AL","Lincoln Sch, Lincoln, AL",-86.1009049,33.6373017
"178","Linden Sch","Linden","AL","USA","Linden Sch, Linden, AL","Linden Sch, Linden, AL",-87.7975819,32.3095392
"179","Lineville Sch","Lineville","AL","USA","Lineville Sch, Lineville, AL","Lineville Sch, Lineville, AL",-85.7575644,33.3106516
"180","Loachapoka Sch","Notasulga","AL","USA","Loachapoka Sch, Notasulga, AL","Loachapoka Sch, Notasulga, AL",-85.5918964,32.6040231
"181","Luverne","Luverne","AL","USA","Luverne, Luverne, AL","Luverne, Luverne, AL",-86.2638492,31.7165455
"182","Macon-East Montgomery Academy","Cecil","AL","USA","Macon-East Montgomery Academy, Cecil, AL","Macon-East Montgomery Academy, Cecil, AL",-86.0123126,32.3026195
"183","Madison Academy","Madison","AL","USA","Madison Academy, Madison, AL","Madison Academy, Madison, AL",-86.7056083,34.7050932
"184","Madison Co Sch","Gurley","AL","USA","Madison Co Sch, Gurley, AL","Madison Co Sch, Gurley, AL",-86.3755916,34.7023589
"185","Madison Co Sch","Madison","AL","USA","Madison Co Sch, Madison, AL","Madison Co Sch, Madison, AL",-86.4592091,34.8551917
"186","Madison County","Gurley","AL","USA","Madison County, Gurley, AL","Madison County, Gurley, AL",-86.3758201,34.7017558
"187","Maplesville","Maplesville","AL","USA","Maplesville, Maplesville, AL","Maplesville, Maplesville, AL",-86.8716549,32.7884608
"188","Maplesville Sch","Maplesville","AL","USA","Maplesville Sch, Maplesville, AL","Maplesville Sch, Maplesville, AL",-86.8783409,32.8025733
"189","Marbury Sch","Marbury","AL","USA","Marbury Sch, Marbury, AL","Marbury Sch, Marbury, AL",-86.4738216,32.7003563
"190","McAdory","McCalla","AL","USA","McAdory, McCalla, AL","McAdory, McCalla, AL",-87.0011776,33.3314371
"191","McGill Toolen","Mobile","AL","USA","McGill Toolen, Mobile, AL","McGill Toolen, Mobile, AL",-88.0723447,30.6892674
"192","Mckenzie Sch","Mckenzie","AL","USA","Mckenzie Sch, Mckenzie, AL","Mckenzie Sch, Mckenzie, AL",-86.7151682,31.545341
"193","Midfield Sch","Birmingham","AL","USA","Midfield Sch, Birmingham, AL","Midfield Sch, Birmingham, AL",-86.9148272,33.4533627
"194","Minor","Adamsville","AL","USA","Minor, Adamsville, AL","Minor, Adamsville, AL",-86.9333123,33.5945201
"195","Mobile Christian School","Mobile","AL","USA","Mobile Christian School, Mobile, AL","Mobile Christian School, Mobile, AL",-88.1783088,30.6437135
"196","Monroe Academy","Monroeville","AL","USA","Monroe Academy, Monroeville, AL","Monroe Academy, Monroeville, AL",-87.3404181,31.4748546
"197","Montevallo","Montevallo","AL","USA","Montevallo, Montevallo, AL","Montevallo, Montevallo, AL",-86.8641558,33.1006746
"198","Montgomery Catholic Preparatory","Montgomery","AL","USA","Montgomery Catholic Preparatory, Montgomery, AL","Montgomery Catholic Preparatory, Montgomery, AL",-86.2160027,32.3400861
"199","Moody Sch","Moody","AL","USA","Moody Sch, Moody, AL","Moody Sch, Moody, AL",-86.4599754,33.610698
"200","Mortimer Jordan","Morris","AL","USA","Mortimer Jordan, Morris, AL","Mortimer Jordan, Morris, AL",-86.7664763,33.7864043
"201","Mountain Brook","Birmingham","AL","USA","Mountain Brook, Birmingham, AL","Mountain Brook, Birmingham, AL",-86.7522107,33.5009384
"202","Mountain View Baptist School","Birmingham","AL","USA","Mountain View Baptist School, Birmingham, AL","Mountain View Baptist School, Birmingham, AL",-86.636262,33.6525379
"203","Mt Brook Sch","Birmingham","AL","USA","Mt Brook Sch, Birmingham, AL","Mt Brook Sch, Birmingham, AL",-86.754141,33.502024
"204","Munford","Munford","AL","USA","Munford, Munford, AL","Munford, Munford, AL",-85.9508005,33.5298282
"205","Murphy","Mobile","AL","USA","Murphy, Mobile, AL","Murphy, Mobile, AL",-88.0866304,30.682838
"206","Muscle Shoals","Athens","AL","USA","Muscle Shoals, Athens, AL","Muscle Shoals, Athens, AL",-87.6461845,34.7430844
"207","Muscle Shoals","Cherokee","AL","USA","Muscle Shoals, Cherokee, AL","Muscle Shoals, Cherokee, AL",-87.6681637,34.7322293
"208","Muscle Shoals","Muscle Shoals","AL","USA","Muscle Shoals, Muscle Shoals, AL","Muscle Shoals, Muscle Shoals, AL",-87.6675292,34.7448112
"209","New Hope","New Hope","AL","USA","New Hope, New Hope, AL","New Hope, New Hope, AL",-86.3944307,34.5370339
"210","North Jackson","Stevenson","AL","USA","North Jackson, Stevenson, AL","North Jackson, Stevenson, AL",-85.7896674,34.8995012
"211","Northridge","Tuscaloosa","AL","USA","Northridge, Tuscaloosa, AL","Northridge, Tuscaloosa, AL",-87.5281828,33.244564
"212","Northview","Dothan","AL","USA","Northview, Dothan, AL","Northview, Dothan, AL",-85.3790619,31.270213
"213","Northview","Prattville","AL","USA","Northview, Prattville, AL","Northview, Prattville, AL",-86.4711353,32.5004001
"214","Oak Mountain","Birmingham","AL","USA","Oak Mountain, Birmingham, AL","Oak Mountain, Birmingham, AL",-86.7593249,33.3247302
"215","Oneonta","Oneonta","AL","USA","Oneonta, Oneonta, AL","Oneonta, Oneonta, AL",-86.472764,33.9481537
"216","Opelika","Opelika","AL","USA","Opelika, Opelika, AL","Opelika, Opelika, AL",-85.3782795,32.6454116
"217","Opp","Opp","AL","USA","Opp, Opp, AL","Opp, Opp, AL",-86.2555067,31.2826685
"218","Opp Sch","Opp","AL","USA","Opp Sch, Opp, AL","Opp Sch, Opp, AL",-86.2393705,31.2883874
"219","Oxford","Munford","AL","USA","Oxford, Munford, AL","Oxford, Munford, AL",-85.9508005,33.5298282
"220","Oxford","Oxford","AL","USA","Oxford, Oxford, AL","Oxford, Oxford, AL",-85.8349648,33.6142714
"221","Park Crossing","Montgomery","AL","USA","Park Crossing, Montgomery, AL","Park Crossing, Montgomery, AL",-86.15953,32.3052367
"222","Parker","Birmingham","AL","USA","Parker, Birmingham, AL","Parker, Birmingham, AL",-86.8296064,33.5151756
"223","Parrish Sch","Parrish","AL","USA","Parrish Sch, Parrish, AL","Parrish Sch, Parrish, AL",-87.2791489,33.7336457
"224","Patrician Academy","Butler","AL","USA","Patrician Academy, Butler, AL","Patrician Academy, Butler, AL",-88.225576,32.082369
"225","Paul W Bryant","Cottondale","AL","USA","Paul W Bryant, Cottondale, AL","Paul W Bryant, Cottondale, AL",-87.453708,33.1578383
"226","Pelham","Helena","AL","USA","Pelham, Helena, AL","Pelham, Helena, AL",-86.8075776,33.3388936
"227","Pelham","Pelham","AL","USA","Pelham, Pelham, AL","Pelham, Pelham, AL",-86.8099885,33.2856687
"228","Pell City Sch","Pell City","AL","USA","Pell City Sch, Pell City, AL","Pell City Sch, Pell City, AL",-86.2970998,33.6071108
"229","Pickens Academy","Carrollton","AL","USA","Pickens Academy, Carrollton, AL","Pickens Academy, Carrollton, AL",-88.0903248,33.2531882
"230","Pickens County","Reform","AL","USA","Pickens County, Reform, AL","Pickens County, Reform, AL",-88.0153008,33.378451
"231","Piedmont","Piedmont","AL","USA","Piedmont, Piedmont, AL","Piedmont, Piedmont, AL",-85.614627,33.916767
"232","Pike Co Sch","Brundidge","AL","USA","Pike Co Sch, Brundidge, AL","Pike Co Sch, Brundidge, AL",-85.8219498,31.7327766
"233","Pike Liberal Arts School","Troy","AL","USA","Pike Liberal Arts School, Troy, AL","Pike Liberal Arts School, Troy, AL",-85.9426703,31.7823349
"234","Pinson Valley","Pinson","AL","USA","Pinson Valley, Pinson, AL","Pinson Valley, Pinson, AL",-86.7153912,33.6527737
"235","Pleasant Grove","Pleasant Grove","AL","USA","Pleasant Grove, Pleasant Grove, AL","Pleasant Grove, Pleasant Grove, AL",-86.9649101,33.5179126
"236","Prattville","Montgomery","AL","USA","Prattville, Montgomery, AL","Prattville, Montgomery, AL",-86.4596966,32.4640245
"237","Prattville","Prattville","AL","USA","Prattville, Prattville, AL","Prattville, Prattville, AL",-86.4596966,32.4640245
"238","Prattville Christian Academy","Prattville","AL","USA","Prattville Christian Academy, Prattville, AL","Prattville Christian Academy, Prattville, AL",-86.405138,32.479883
"239","Priceville","Decatur","AL","USA","Priceville, Decatur, AL","Priceville, Decatur, AL",-86.8862594,34.5188586
"240","R A Hubbard Sch","Courtland","AL","USA","R A Hubbard Sch, Courtland, AL","R A Hubbard Sch, Courtland, AL",-87.3099656,34.6814602
"241","Ramsay","Birmingham","AL","USA","Ramsay, Birmingham, AL","Ramsay, Birmingham, AL",-86.798457,33.497616
"242","Randolph County","Wedowee","AL","USA","Randolph County, Wedowee, AL","Randolph County, Wedowee, AL",-85.484675,33.3090047
"243","Randolph School","Huntsville","AL","USA","Randolph School, Huntsville, AL","Randolph School, Huntsville, AL",-86.5580531,34.7066529
"244","Reeltown Sch","Notasulga","AL","USA","Reeltown Sch, Notasulga, AL","Reeltown Sch, Notasulga, AL",-85.8025967,32.6029455
"245","Restoration Academy","Fairfield","AL","USA","Restoration Academy, Fairfield, AL","Restoration Academy, Fairfield, AL",-86.9153753,33.489855
"246","Robert E. Lee","Montgomery","AL","USA","Robert E. Lee, Montgomery, AL","Robert E. Lee, Montgomery, AL",-86.2720297,32.3785812
"247","Robertsdale","Robertsdale","AL","USA","Robertsdale, Robertsdale, AL","Robertsdale, Robertsdale, AL",-87.7119324,30.5538048
"248","Russell Co Sch","Seale","AL","USA","Russell Co Sch, Seale, AL","Russell Co Sch, Seale, AL",-85.1506911,32.3338061
"249","Russellville","Russellville","AL","USA","Russellville, Russellville, AL","Russellville, Russellville, AL",-87.7286431,34.5078726
"250","Saint Clair Co Sch","Odenville","AL","USA","Saint Clair Co Sch, Odenville, AL","Saint Clair Co Sch, Odenville, AL",-86.3706995,33.7031067
"251","Saks","Anniston","AL","USA","Saks, Anniston, AL","Saks, Anniston, AL",-85.8436597,33.7219643
"252","Saraland","Saraland","AL","USA","Saraland, Saraland, AL","Saraland, Saraland, AL",-88.0705556,30.820742
"253","Satsuma","Satsuma","AL","USA","Satsuma, Satsuma, AL","Satsuma, Satsuma, AL",-88.0561106,30.853241
"254","Scottsboro Sch","Scottsboro","AL","USA","Scottsboro Sch, Scottsboro, AL","Scottsboro Sch, Scottsboro, AL",-86.0307029,34.6706165
"255","Selma Sch","Selma","AL","USA","Selma Sch, Selma, AL","Selma Sch, Selma, AL",-87.0226785,32.4284032
"256","Shades Valley","Birmingham","AL","USA","Shades Valley, Birmingham, AL","Shades Valley, Birmingham, AL",-86.830395,33.460826
"257","Sheffield","Sheffield","AL","USA","Sheffield, Sheffield, AL","Sheffield, Sheffield, AL",-87.6986407,34.7650887
"258","Shelby County","Columbiana","AL","USA","Shelby County, Columbiana, AL","Shelby County, Columbiana, AL",-86.6072054,33.1781718
"259","Sipsey Valley","Buhl","AL","USA","Sipsey Valley, Buhl, AL","Sipsey Valley, Buhl, AL",-87.7340538,33.1932214
"260","Smiths Station","Smiths Station","AL","USA","Smiths Station, Smiths Station, AL","Smiths Station, Smiths Station, AL",-85.0985473,32.5401393
"261","South Choctaw Academy","Toxey","AL","USA","South Choctaw Academy, Toxey, AL","South Choctaw Academy, Toxey, AL",-88.3178887,31.91226
"262","Southern Choctaw","Gilbertown","AL","USA","Southern Choctaw, Gilbertown, AL","Southern Choctaw, Gilbertown, AL",-88.3193787,31.8429084
"263","Southside","Ashville","AL","USA","Southside, Ashville, AL","Southside, Ashville, AL",-86.0224718,33.9245425
"264","Southside","Gadsden","AL","USA","Southside, Gadsden, AL","Southside, Gadsden, AL",-86.0224718,33.9245425
"265","Southside","Selma","AL","USA","Southside, Selma, AL","Southside, Selma, AL",-86.9290859,32.3271848
"266","Spain Park","Birmingham","AL","USA","Spain Park, Birmingham, AL","Spain Park, Birmingham, AL",-86.7257473,33.3930724
"267","Spanish Fort","Spanish Fort","AL","USA","Spanish Fort, Spanish Fort, AL","Spanish Fort, Spanish Fort, AL",-87.9018829,30.671469
"268","Sparkman","Harvest","AL","USA","Sparkman, Harvest, AL","Sparkman, Harvest, AL",-86.7160853,34.8342964
"269","Springville Sch","Springville","AL","USA","Springville Sch, Springville, AL","Springville Sch, Springville, AL",-86.4682996,33.7790318
"270","Springwood School","Lanett","AL","USA","Springwood School, Lanett, AL","Springwood School, Lanett, AL",-85.2094778,32.8762591
"271","Sr Butler Sch","Huntsville","AL","USA","Sr Butler Sch, Huntsville, AL","Sr Butler Sch, Huntsville, AL",-86.6560606,34.7319822
"272","St James School","Montgomery","AL","USA","St James School, Montgomery, AL","St James School, Montgomery, AL",-86.206625,32.337211
"273","St Jude Educational Institute","Montgomery","AL","USA","St Jude Educational Institute, Montgomery, AL","St Jude Educational Institute, Montgomery, AL",-86.328367,32.3521165
"274","St. Clair County","Odenville","AL","USA","St. Clair County, Odenville, AL","St. Clair County, Odenville, AL",-86.396648,33.6773237
"275","St. Luke's Episcopal","Mobile","AL","USA","St. Luke's Episcopal, Mobile, AL","St. Luke's Episcopal, Mobile, AL",-88.1662405,30.6613631
"276","St. Paul's Episcopal","Mobile","AL","USA","St. Paul's Episcopal, Mobile, AL","St. Paul's Episcopal, Mobile, AL",-88.1345398,30.6966056
"277","Stanhope Elmore","Millbrook","AL","USA","Stanhope Elmore, Millbrook, AL","Stanhope Elmore, Millbrook, AL",-86.3623863,32.4940867
"278","Sulligent Sch","Sulligent","AL","USA","Sulligent Sch, Sulligent, AL","Sulligent Sch, Sulligent, AL",-88.1305721,33.8989197
"279","Sumter Co Sch","York","AL","USA","Sumter Co Sch, York, AL","Sumter Co Sch, York, AL",-88.3124687,32.4838122
"280","Sunshine Sch","Newbern","AL","USA","Sunshine Sch, Newbern, AL","Sunshine Sch, Newbern, AL",-87.5327815,32.5931884
"281","Susan Moore Sch","Blountsville","AL","USA","Susan Moore Sch, Blountsville, AL","Susan Moore Sch, Blountsville, AL",-86.4305252,34.0834987
"282","Sweet Water Sch","Sweet Water","AL","USA","Sweet Water Sch, Sweet Water, AL","Sweet Water Sch, Sweet Water, AL",-87.8659383,32.0969669
"283","Sylacauga Sch","Sylacauga","AL","USA","Sylacauga Sch, Sylacauga, AL","Sylacauga Sch, Sylacauga, AL",-86.2514644,33.1766925
"284","Talladega Sch","Talladega","AL","USA","Talladega Sch, Talladega, AL","Talladega Sch, Talladega, AL",-86.1025491,33.4324178
"285","Tallassee","Tallassee","AL","USA","Tallassee, Tallassee, AL","Tallassee, Tallassee, AL",-85.8932923,32.5359683
"286","Tanner Sch","Tanner","AL","USA","Tanner Sch, Tanner, AL","Tanner Sch, Tanner, AL",-86.9741875,34.7324279
"287","Tarrant","Birmingham","AL","USA","Tarrant, Birmingham, AL","Tarrant, Birmingham, AL",-86.7718017,33.586822
"288","The Donoho School","Anniston","AL","USA","The Donoho School, Anniston, AL","The Donoho School, Anniston, AL",-85.7907693,33.6537162
"289","The Montgomery Academy","Montgomery","AL","USA","The Montgomery Academy, Montgomery, AL","The Montgomery Academy, Montgomery, AL",-86.259948,32.350958
"290","The Peddie School","Alabaster","AL","USA","The Peddie School, Alabaster, AL","The Peddie School, Alabaster, AL",-74.5242289,40.2668445
"291","Theodore","Theodore","AL","USA","Theodore, Theodore, AL","Theodore, Theodore, AL",-88.1752796,30.5476941
"292","Thomasville","Thomasville","AL","USA","Thomasville, Thomasville, AL","Thomasville, Thomasville, AL",-87.7358366,31.9134859
"293","Thompson","Alabaster","AL","USA","Thompson, Alabaster, AL","Thompson, Alabaster, AL",-86.8387757,33.2162484
"294","Tr Miller Sch","Brewton","AL","USA","Tr Miller Sch, Brewton, AL","Tr Miller Sch, Brewton, AL",-87.0698308,31.1381152
"295","Trinity Presbyterian School","Montgomery","AL","USA","Trinity Presbyterian School, Montgomery, AL","Trinity Presbyterian School, Montgomery, AL",-86.233714,32.353775
"296","Tuscaloosa Academy","Tuscaloosa","AL","USA","Tuscaloosa Academy, Tuscaloosa, AL","Tuscaloosa Academy, Tuscaloosa, AL",-87.5401015,33.2452281
"297","Tuscaloosa County","Northport","AL","USA","Tuscaloosa County, Northport, AL","Tuscaloosa County, Northport, AL",-87.5772293,33.229007
"298","UMS-Wright Preparatory School","Mobile","AL","USA","UMS-Wright Preparatory School, Mobile, AL","UMS-Wright Preparatory School, Mobile, AL",-88.1070681,30.6925593
"299","Unknown","Birmingham","AL","USA","Unknown, Birmingham, AL","Unknown, Birmingham, AL",-86.8103567,33.5185892
"300","Valley HS","Valley","AL","USA","Valley HS, Valley, AL","Valley HS, Valley, AL",-85.1815645,32.801895
"301","Vestavia Hills","Birmingham","AL","USA","Vestavia Hills, Birmingham, AL","Vestavia Hills, Birmingham, AL",-86.7877668,33.4487183
"302","Vigor","Mobile","AL","USA","Vigor, Mobile, AL","Vigor, Mobile, AL",-88.0803667,30.7431734
"303","Virgil Grissom Sch","Huntsville","AL","USA","Virgil Grissom Sch, Huntsville, AL","Virgil Grissom Sch, Huntsville, AL",-86.576543,34.6426691
"304","W S Neal Sch","Brewton","AL","USA","W S Neal Sch, Brewton, AL","W S Neal Sch, Brewton, AL",-87.0545557,31.0901095
"305","Wadley","Wadley","AL","USA","Wadley, Wadley, AL","Wadley, Wadley, AL",-85.5697369,33.12275
"306","Walker","Jasper","AL","USA","Walker, Jasper, AL","Walker, Jasper, AL",-87.2775053,33.8312185
"307","Wellborn Sch","Anniston","AL","USA","Wellborn Sch, Anniston, AL","Wellborn Sch, Anniston, AL",-85.8796246,33.6513489
"308","Wenonah Sch","Birmingham","AL","USA","Wenonah Sch, Birmingham, AL","Wenonah Sch, Birmingham, AL",-86.8851437,33.4546439
"309","West End Sch","Birmingham","AL","USA","West End Sch, Birmingham, AL","West End Sch, Birmingham, AL",-86.8676099,33.484049
"310","West Limestone Sch","Lester","AL","USA","West Limestone Sch, Lester, AL","West Limestone Sch, Lester, AL",-87.1237585,34.9390927
"311","West Morgan Sch","Trinity","AL","USA","West Morgan Sch, Trinity, AL","West Morgan Sch, Trinity, AL",-87.078035,34.5851201
"312","Westminster Christian Academy","Huntsville","AL","USA","Westminster Christian Academy, Huntsville, AL","Westminster Christian Academy, Huntsville, AL",-86.676056,34.760354
"313","Westminster School At Oak Mountain","Birmingham","AL","USA","Westminster School At Oak Mountain, Birmingham, AL","Westminster School At Oak Mountain, Birmingham, AL",-86.7064479,33.3754977
"314","Wetumpka","Wetumpka","AL","USA","Wetumpka, Wetumpka, AL","Wetumpka, Wetumpka, AL",-86.2119127,32.5437448
"315","Wilcox Central Sch","Camden","AL","USA","Wilcox Central Sch, Camden, AL","Wilcox Central Sch, Camden, AL",-87.3222351,32.0070419
"316","Williamson","Mobile","AL","USA","Williamson, Mobile, AL","Williamson, Mobile, AL",-88.0741738,30.669743
"317","Winterboro","Alpine","AL","USA","Winterboro, Alpine, AL","Winterboro, Alpine, AL",-86.1969178,33.3215007
"318","Woodlawn","Birmingham","AL","USA","Woodlawn, Birmingham, AL","Woodlawn, Birmingham, AL",-86.7516558,33.54066
"319","WP Davidson","Mobile","AL","USA","WP Davidson, Mobile, AL","WP Davidson, Mobile, AL",-88.1464483,30.6623935
"320","Academics Plus","Maumelle","AR","USA","Academics Plus, Maumelle, AR","Academics Plus, Maumelle, AR",-92.4043809,34.8646379
"321","Alma","Alma","AR","USA","Alma, Alma, AR","Alma, Alma, AR",-94.2218752,35.4778653
"322","Arkadelphia","Arkadelphia","AR","USA","Arkadelphia, Arkadelphia, AR","Arkadelphia, Arkadelphia, AR",-93.0537839,34.1209292
"323","Arkansas","Texarkana","AR","USA","Arkansas, Texarkana, AR","Arkansas, Texarkana, AR",-94.0376881,33.4417915
"324","Arkansas Baptist School System","Little Rock","AR","USA","Arkansas Baptist School System, Little Rock, AR","Arkansas Baptist School System, Little Rock, AR",-92.401332,34.779384
"325","Ashdown","Ashdown","AR","USA","Ashdown, Ashdown, AR","Ashdown, Ashdown, AR",-94.1313054,33.6742867
"326","Barton","Aubrey","AR","USA","Barton, Aubrey, AR","Barton, Aubrey, AR",NA,NA
"327","Batesville","Batesville","AR","USA","Batesville, Batesville, AR","Batesville, Batesville, AR",-91.6409721,35.769799
"328","Bearden","Bearden","AR","USA","Bearden, Bearden, AR","Bearden, Bearden, AR",-92.6157139,33.7245526
"329","Benton","Benton","AR","USA","Benton, Benton, AR","Benton, Benton, AR",-92.586828,34.5645371
"330","Bentonville","Bentonville","AR","USA","Bentonville, Bentonville, AR","Bentonville, Bentonville, AR",-94.2088172,36.3728538
"331","Bentonville West","Centerton","AR","USA","Bentonville West, Centerton, AR","Bentonville West, Centerton, AR",-94.2963597,36.3775561
"332","Blytheville","Blytheville","AR","USA","Blytheville, Blytheville, AR","Blytheville, Blytheville, AR",-89.9189753,35.9272953
"333","Bryant","Bryant","AR","USA","Bryant, Bryant, AR","Bryant, Bryant, AR",-92.4890469,34.5959265
"334","Cabot","Cabot","AR","USA","Cabot, Cabot, AR","Cabot, Cabot, AR",-92.0165336,34.974532
"335","Camden Fairview","Camden","AR","USA","Camden Fairview, Camden, AR","Camden Fairview, Camden, AR",-92.8530052,33.5513511
"336","Catholic For Boys","Little Rock","AR","USA","Catholic For Boys, Little Rock, AR","Catholic For Boys, Little Rock, AR",-92.3443285,34.7568934
"337","Cave City","Cave City","AR","USA","Cave City, Cave City, AR","Cave City, Cave City, AR",-91.5484709,35.9417397
"338","Central Arkansas Christian","Maumelle","AR","USA","Central Arkansas Christian, Maumelle, AR","Central Arkansas Christian, Maumelle, AR",-92.3542964,34.8151577
"339","Charleston","Charleston","AR","USA","Charleston, Charleston, AR","Charleston, Charleston, AR",-94.0272778,35.2975966
"340","Conway","Conway","AR","USA","Conway, Conway, AR","Conway, Conway, AR",-92.4421011,35.0886963
"341","Corning","Corning","AR","USA","Corning, Corning, AR","Corning, Corning, AR",-90.5798336,36.4078388
"342","Crossett","Crossett","AR","USA","Crossett, Crossett, AR","Crossett, Crossett, AR",-91.9612427,33.1281779
"343","Cutter-morning Star Sch.","Hot Springs National Park","AR","USA","Cutter-morning Star Sch., Hot Springs National Park, AR","Cutter-morning Star Sch., Hot Springs National Park, AR",-92.9895781,34.5035993
"344","Dardanelle","Dardanelle","AR","USA","Dardanelle, Dardanelle, AR","Dardanelle, Dardanelle, AR",-93.1579532,35.2231408
"345","Dequeen","De Queen","AR","USA","Dequeen, De Queen, AR","Dequeen, De Queen, AR",-94.3413168,34.0378916
"346","Des Arc","Des Arc","AR","USA","Des Arc, Des Arc, AR","Des Arc, Des Arc, AR",-91.4951307,34.9770353
"347","Dewitt","De Witt","AR","USA","Dewitt, De Witt, AR","Dewitt, De Witt, AR",-91.3378987,34.2928774
"348","Dollarway","White Hall","AR","USA","Dollarway, White Hall, AR","Dollarway, White Hall, AR",-92.08966,34.271969
"349","Dumas","Dumas","AR","USA","Dumas, Dumas, AR","Dumas, Dumas, AR",-91.4917899,33.8870476
"350","Earle","Earle","AR","USA","Earle, Earle, AR","Earle, Earle, AR",-90.4667694,35.2750871
"351","East Poinsett Co.","Lepanto","AR","USA","East Poinsett Co., Lepanto, AR","East Poinsett Co., Lepanto, AR",-90.3298218,35.6111908
"352","El Dorado","El Dorado","AR","USA","El Dorado, El Dorado, AR","El Dorado, El Dorado, AR",-92.6662674,33.20763
"353","England","England","AR","USA","England, England, AR","England, England, AR",-91.9690284,34.5442609
"354","Fayetteville","Fayetteville","AR","USA","Fayetteville, Fayetteville, AR","Fayetteville, Fayetteville, AR",-94.1718542,36.082156
"355","Fayettville Christian School","Fayetteville","AR","USA","Fayettville Christian School, Fayetteville, AR","Fayettville Christian School, Fayetteville, AR",-94.1306662,36.0887467
"356","Fordyce","Fordyce","AR","USA","Fordyce, Fordyce, AR","Fordyce, Fordyce, AR",-92.4129303,33.8137161
"357","Forrest City","Forrest City","AR","USA","Forrest City, Forrest City, AR","Forrest City, Forrest City, AR",-90.7898342,35.0081474
"358","Fountain Lake","Hot Springs National Park","AR","USA","Fountain Lake, Hot Springs National Park, AR","Fountain Lake, Hot Springs National Park, AR",-93.000534,34.5603713
"359","Greenbrier","Greenbrier","AR","USA","Greenbrier, Greenbrier, AR","Greenbrier, Greenbrier, AR",-92.387655,35.2339712
"360","Greenwood","Greenwood","AR","USA","Greenwood, Greenwood, AR","Greenwood, Greenwood, AR",-94.2557663,35.2156489
"361","Hamburg","Hamburg","AR","USA","Hamburg, Hamburg, AR","Hamburg, Hamburg, AR",-91.7976285,33.2281757
"362","Har-Ber","Springdale","AR","USA","Har-Ber, Springdale, AR","Har-Ber, Springdale, AR",-94.2130412,36.1842731
"363","Harmony Grove","Camden","AR","USA","Harmony Grove, Camden, AR","Harmony Grove, Camden, AR",-92.7809952,33.6520556
"364","Harrisburg","Harrisburg","AR","USA","Harrisburg, Harrisburg, AR","Harrisburg, Harrisburg, AR",-90.7167786,35.5642471
"365","Harrison","Harrison","AR","USA","Harrison, Harrison, AR","Harrison, Harrison, AR",-93.1076765,36.2297936
"366","Hazen","Hazen","AR","USA","Hazen, Hazen, AR","Hazen, Hazen, AR",-91.5809651,34.7809263
"367","Heber Springs","Heber Springs","AR","USA","Heber Springs, Heber Springs, AR","Heber Springs, Heber Springs, AR",-92.03126,35.4914677
"368","Helena-West Helena Central","West Helena","AR","USA","Helena-West Helena Central, West Helena, AR","Helena-West Helena Central, West Helena, AR",-90.6413226,34.550177
"369","Hermitage","Hermitage","AR","USA","Hermitage, Hermitage, AR","Hermitage, Hermitage, AR",-92.1740294,33.4465028
"370","Highland","Hardy","AR","USA","Highland, Hardy, AR","Highland, Hardy, AR",-91.5240287,36.2759002
"371","Hope","Hope","AR","USA","Hope, Hope, AR","Hope, Hope, AR",-93.5915665,33.6670615
"372","Hot Springs","Hot Springs National Park","AR","USA","Hot Springs, Hot Springs National Park, AR","Hot Springs, Hot Springs National Park, AR",-93.0534596,34.513717
"373","Hoxie","Hoxie","AR","USA","Hoxie, Hoxie, AR","Hoxie, Hoxie, AR",-90.9751205,36.0503484
"374","Jacksonville","Jacksonville","AR","USA","Jacksonville, Jacksonville, AR","Jacksonville, Jacksonville, AR",-92.1101458,34.8662005
"375","Jessieville","Springdale","AR","USA","Jessieville, Springdale, AR","Jessieville, Springdale, AR",-93.0626303,34.7005516
"376","Joe T. Robinson","Little Rock","AR","USA","Joe T. Robinson, Little Rock, AR","Joe T. Robinson, Little Rock, AR",-92.5058798,34.8137791
"377","Jonesboro","Jonesboro","AR","USA","Jonesboro, Jonesboro, AR","Jonesboro, Jonesboro, AR",-90.704279,35.8422967
"378","Junction City","Junction City","AR","USA","Junction City, Junction City, AR","Junction City, Junction City, AR",-92.7251576,33.0137501
"379","Lafayette County","Lewisville","AR","USA","Lafayette County, Lewisville, AR","Lafayette County, Lewisville, AR",-93.5776771,33.3584583
"380","Lake Hamilton","Pearcy","AR","USA","Lake Hamilton, Pearcy, AR","Lake Hamilton, Pearcy, AR",-93.2123587,34.4409766
"381","Lakeside","Hot Springs National Park","AR","USA","Lakeside, Hot Springs National Park, AR","Lakeside, Hot Springs National Park, AR",-93.0605859,34.5384347
"382","Lakeside","Lake Village","AR","USA","Lakeside, Lake Village, AR","Lakeside, Lake Village, AR",-91.3105514,33.3251612
"383","Lee Academy Inc","Marianna","AR","USA","Lee Academy Inc, Marianna, AR","Lee Academy Inc, Marianna, AR",-90.7938571,34.7889501
"384","Little Rock Central","Little Rock","AR","USA","Little Rock Central, Little Rock, AR","Little Rock Central, Little Rock, AR",-92.2986873,34.7367998
"385","Little Rock Christian Academy","Little Rock","AR","USA","Little Rock Christian Academy, Little Rock, AR","Little Rock Christian Academy, Little Rock, AR",-92.481855,34.812143
"386","Lonoke","Lonoke","AR","USA","Lonoke, Lonoke, AR","Lonoke, Lonoke, AR",-91.8998611,34.7839795
"387","Magnolia","Magnolia","AR","USA","Magnolia, Magnolia, AR","Magnolia, Magnolia, AR",-93.239334,33.2670725
"388","Malvern","Malvern","AR","USA","Malvern, Malvern, AR","Malvern, Malvern, AR",-92.8129462,34.3623149
"389","Marion","Marion","AR","USA","Marion, Marion, AR","Marion, Marion, AR",-90.1964835,35.2145336
"390","Mayflower","Mayflower","AR","USA","Mayflower, Mayflower, AR","Mayflower, Mayflower, AR",-92.4273785,34.9570324
"391","Mcclellan Magnet","Little Rock","AR","USA","Mcclellan Magnet, Little Rock, AR","Mcclellan Magnet, Little Rock, AR",-92.3432742,34.6647802
"392","Mccrory","Mccrory","AR","USA","Mccrory, Mccrory, AR","Mccrory, Mccrory, AR",-91.2001246,35.2561978
"393","Mcgehee","Mcgehee","AR","USA","Mcgehee, Mcgehee, AR","Mcgehee, Mcgehee, AR",-91.3945566,33.6255234
"394","Monticello","Monticello","AR","USA","Monticello, Monticello, AR","Monticello, Monticello, AR",-91.7909639,33.6289974
"395","Morrilton Sr.","Morrilton","AR","USA","Morrilton Sr., Morrilton, AR","Morrilton Sr., Morrilton, AR",-92.7340961,35.1640454
"396","Mtn Home Career Academics","Mountain Home","AR","USA","Mtn Home Career Academics, Mountain Home, AR","Mtn Home Career Academics, Mountain Home, AR",-92.3969759,36.3315465
"397","Nashville","Nashville","AR","USA","Nashville, Nashville, AR","Nashville, Nashville, AR",-93.847129,33.9456692
"398","Nettleton","Jonesboro","AR","USA","Nettleton, Jonesboro, AR","Nettleton, Jonesboro, AR",-90.6501325,35.8190881
"399","Newport","Newport","AR","USA","Newport, Newport, AR","Newport, Newport, AR",-91.2817951,35.6048018
"400","North Little Rock","Little Rock","AR","USA","North Little Rock, Little Rock, AR","North Little Rock, Little Rock, AR",-92.2433487,34.6429822
"401","North Little Rock","North Little Rock","AR","USA","North Little Rock, North Little Rock, AR","North Little Rock, North Little Rock, AR",-92.2670941,34.769536
"402","Northside","Fort Smith","AR","USA","Northside, Fort Smith, AR","Northside, Fort Smith, AR",-94.4069569,35.3792359
"403","Oak Grove","North Little Rock","AR","USA","Oak Grove, North Little Rock, AR","Oak Grove, North Little Rock, AR",-92.3326179,34.8411977
"404","Osceola","Osceola","AR","USA","Osceola, Osceola, AR","Osceola, Osceola, AR",-89.969532,35.7050778
"405","Ozark","Ozark","AR","USA","Ozark, Ozark, AR","Ozark, Ozark, AR",-93.8276965,35.4870295
"406","Paragould","Paragould","AR","USA","Paragould, Paragould, AR","Paragould, Paragould, AR",-90.4973286,36.0584021
"407","Paris","Paris","AR","USA","Paris, Paris, AR","Paris, Paris, AR",-93.7299173,35.2920325
"408","Parkers Chapel","El Dorado","AR","USA","Parkers Chapel, El Dorado, AR","Parkers Chapel, El Dorado, AR",-92.7218254,33.171521
"409","Parkview Magnet","Little Rock","AR","USA","Parkview Magnet, Little Rock, AR","Parkview Magnet, Little Rock, AR",-92.3702359,34.7314138
"410","Pine Bluff","Pine Bluff","AR","USA","Pine Bluff, Pine Bluff, AR","Pine Bluff, Pine Bluff, AR",-92.0031955,34.2284312
"411","Pocahontas","Pocahontas","AR","USA","Pocahontas, Pocahontas, AR","Pocahontas, Pocahontas, AR",-90.971233,36.2614554
"412","Pottsville","Pottsville","AR","USA","Pottsville, Pottsville, AR","Pottsville, Pottsville, AR",-93.049061,35.2481394
"413","Prairie Grove","Prairie Grove","AR","USA","Prairie Grove, Prairie Grove, AR","Prairie Grove, Prairie Grove, AR",-94.3177103,35.9759145
"414","Prescott","Prescott","AR","USA","Prescott, Prescott, AR","Prescott, Prescott, AR",-93.3810057,33.8026107
"415","Pulaski Academy","Little Rock","AR","USA","Pulaski Academy, Little Rock, AR","Pulaski Academy, Little Rock, AR",-92.4122376,34.7718897
"416","Quitman","Quitman","AR","USA","Quitman, Quitman, AR","Quitman, Quitman, AR",-92.2157074,35.3842471
"417","Rison","Rison","AR","USA","Rison, Rison, AR","Rison, Rison, AR",-92.1901454,33.9584347
"418","Rivercrest","Wilson","AR","USA","Rivercrest, Wilson, AR","Rivercrest, Wilson, AR",-90.0771032,35.5959177
"419","Rogers","Rogers","AR","USA","Rogers, Rogers, AR","Rogers, Rogers, AR",-94.1185366,36.3320196
"420","Russellville","Russellville","AR","USA","Russellville, Russellville, AR","Russellville, Russellville, AR",-93.1337856,35.2784173
"421","Searcy","Searcy","AR","USA","Searcy, Searcy, AR","Searcy, Searcy, AR",-91.7336846,35.2468204
"422","Sheridan","Sheridan","AR","USA","Sheridan, Sheridan, AR","Sheridan, Sheridan, AR",-92.4012654,34.3070406
"423","Shiloh Christian","Springdale","AR","USA","Shiloh Christian, Springdale, AR","Shiloh Christian, Springdale, AR",-94.1563176,36.1694942
"424","Siloam Springs","Siloam Springs","AR","USA","Siloam Springs, Siloam Springs, AR","Siloam Springs, Siloam Springs, AR",-94.5404962,36.1881365
"425","Smackover","Smackover","AR","USA","Smackover, Smackover, AR","Smackover, Smackover, AR",-92.7248822,33.3648455
"426","Southside","Fort Smith","AR","USA","Southside, Fort Smith, AR","Southside, Fort Smith, AR",-94.3883332,35.3479762
"427","Springdale","Springdale","AR","USA","Springdale, Springdale, AR","Springdale, Springdale, AR",-94.1288141,36.1867442
"428","St. Benedict at Auburndale","Heber Springs","AR","USA","St. Benedict at Auburndale, Heber Springs, AR","St. Benedict at Auburndale, Heber Springs, AR",-89.7904765,35.1856693
"429","St. Joe","Saint Joe","AR","USA","St. Joe, Saint Joe, AR","St. Joe, Saint Joe, AR",-92.8046118,36.0300743
"430","Star City","Star City","AR","USA","Star City, Star City, AR","Star City, Star City, AR",-91.8434668,33.9428794
"431","Strong","Strong","AR","USA","Strong, Strong, AR","Strong, Strong, AR",-92.3566861,33.1073435
"432","Stuttgart","Stuttgart","AR","USA","Stuttgart, Stuttgart, AR","Stuttgart, Stuttgart, AR",-91.5526281,34.5003748
"433","Sylvan Hills","Sherwood","AR","USA","Sylvan Hills, Sherwood, AR","Sylvan Hills, Sherwood, AR",-92.2355257,34.8487106
"434","Trumann","Trumann","AR","USA","Trumann, Trumann, AR","Trumann, Trumann, AR",-90.5073285,35.6736895
"435","Van Buren","Van Buren","AR","USA","Van Buren, Van Buren, AR","Van Buren, Van Buren, AR",-94.348268,35.436756
"436","Warren","Warren","AR","USA","Warren, Warren, AR","Warren, Warren, AR",-92.064583,33.6126086
"437","Watson Chapel","Pine Bluff","AR","USA","Watson Chapel, Pine Bluff, AR","Watson Chapel, Pine Bluff, AR",-92.0656975,34.1892649
"438","West Memphis","West Memphis","AR","USA","West Memphis, West Memphis, AR","West Memphis, West Memphis, AR",-90.1845388,35.1464797
"439","West Memphis Christian School","West Memphis","AR","USA","West Memphis Christian School, West Memphis, AR","West Memphis Christian School, West Memphis, AR",-90.1831388,35.1583701
"440","White Hall","White Hall","AR","USA","White Hall, White Hall, AR","White Hall, White Hall, AR",-92.0947561,34.2712747
"441","Wilbur D. Mills","Little Rock","AR","USA","Wilbur D. Mills, Little Rock, AR","Wilbur D. Mills, Little Rock, AR",-92.3280244,34.744543
"442","Wynne","Wynne","AR","USA","Wynne, Wynne, AR","Wynne, Wynne, AR",-90.7867798,35.224533
"443","Yellville-Summit","Yellville","AR","USA","Yellville-Summit, Yellville, AR","Yellville-Summit, Yellville, AR",-92.6901668,36.2406348
"444","Fa'asao Marist","Pago Pago","AS",NA,"Fa'asao Marist, Pago Pago, AS","Fa'asao Marist, Pago Pago, AS",-170.7730437,-14.3437736
"445","Faga'itua","Pago Pago","AS",NA,"Faga'itua, Pago Pago, AS","Faga'itua, Pago Pago, AS",-170.6153463,-14.2671898
"446","Kanana Fou","Pago Pago","AS",NA,"Kanana Fou, Pago Pago, AS","Kanana Fou, Pago Pago, AS",-170.7282431,-14.3274686
"447","Leone","Pago Pago","AS",NA,"Leone, Pago Pago, AS","Leone, Pago Pago, AS",-170.7020359,-14.2756319
"448","Nu'uuli Voc-Tech","Pago Pago","AS",NA,"Nu'uuli Voc-Tech, Pago Pago, AS","Nu'uuli Voc-Tech, Pago Pago, AS",-170.7148855,-14.322661
"449","Samoana","Pago Pago","AS",NA,"Samoana, Pago Pago, AS","Samoana, Pago Pago, AS",-170.7020359,-14.2756319
"450","Tafuna","Pago Pago","AS",NA,"Tafuna, Pago Pago, AS","Tafuna, Pago Pago, AS",-170.7020359,-14.2756319
"451","Aaec Paradise Valley","Phoenix","AZ","USA","Aaec Paradise Valley, Phoenix, AZ","Aaec Paradise Valley, Phoenix, AZ",-112.0015209,33.6539418
"452","Agua Fria","Avondale","AZ","USA","Agua Fria, Avondale, AZ","Agua Fria, Avondale, AZ",-112.3431302,33.4400919
"453","American Leadership Academy","Gilbert","AZ","USA","American Leadership Academy, Gilbert, AZ","American Leadership Academy, Gilbert, AZ",-111.7230171,33.3314649
"454","Amphitheater","Tucson","AZ","USA","Amphitheater, Tucson, AZ","Amphitheater, Tucson, AZ",-111.0842235,32.1297698
"455","Apache Junction","Apache Junction","AZ","USA","Apache Junction, Apache Junction, AZ","Apache Junction, Apache Junction, AZ",-111.5495777,33.4150485
"456","Apollo","Glendale","AZ","USA","Apollo, Glendale, AZ","Apollo, Glendale, AZ",-112.1586701,33.5551201
"457","Arcadia","Phoenix","AZ","USA","Arcadia, Phoenix, AZ","Arcadia, Phoenix, AZ",-111.9611919,33.494109
"458","Basha","Chandler","AZ","USA","Basha, Chandler, AZ","Basha, Chandler, AZ",-111.7918039,33.2351665
"459","Betty H. Fairfax","Laveen","AZ","USA","Betty H. Fairfax, Laveen, AZ","Betty H. Fairfax, Laveen, AZ",-112.181396,33.370678
"460","Blue Ridge","Lakeside","AZ","USA","Blue Ridge, Lakeside, AZ","Blue Ridge, Lakeside, AZ",-109.9666195,34.1494471
"461","Boulder Creek","Phoenix","AZ","USA","Boulder Creek, Phoenix, AZ","Boulder Creek, Phoenix, AZ",-111.9690332,33.4578962
"462","Bradshaw Mountain","Prescott Valley","AZ","USA","Bradshaw Mountain, Prescott Valley, AZ","Bradshaw Mountain, Prescott Valley, AZ",-112.3480269,34.6005194
"463","Brophy College Preparatory","Phoenix","AZ","USA","Brophy College Preparatory, Phoenix, AZ","Brophy College Preparatory, Phoenix, AZ",-112.0719379,33.5049292
"464","Buckeye Union","B M Goldwater A F Range","AZ","USA","Buckeye Union, B M Goldwater A F Range, AZ","Buckeye Union, B M Goldwater A F Range, AZ",-112.5837766,33.3703197
"465","Buena","Sierra Vista","AZ","USA","Buena, Sierra Vista, AZ","Buena, Sierra Vista, AZ",-110.2806839,31.5570236
"466","Cactus","Glendale","AZ","USA","Cactus, Glendale, AZ","Cactus, Glendale, AZ",-112.2005153,33.6699777
"467","Camelback","Phoenix","AZ","USA","Camelback, Phoenix, AZ","Camelback, Phoenix, AZ",-112.0191328,33.5094828
"468","Canyon Del Oro","Tucson","AZ","USA","Canyon Del Oro, Tucson, AZ","Canyon Del Oro, Tucson, AZ",-110.9738019,32.3740761
"469","Casa Grande Union","Casa Grande","AZ","USA","Casa Grande Union, Casa Grande, AZ","Casa Grande Union, Casa Grande, AZ",-111.7373152,32.9356519
"470","Casteel","QUEEN CREEK","AZ","USA","Casteel, QUEEN CREEK, AZ","Casteel, QUEEN CREEK, AZ",-111.6838037,33.2221805
"471","Catalina Foothills","Tucson","AZ","USA","Catalina Foothills, Tucson, AZ","Catalina Foothills, Tucson, AZ",-110.9187037,32.297853
"472","Centennial","Peoria","AZ","USA","Centennial, Peoria, AZ","Centennial, Peoria, AZ",-112.2322333,33.6170908
"473","Central","Paradise Valley","AZ","USA","Central, Paradise Valley, AZ","Central, Paradise Valley, AZ",-111.9785093,33.6068249
"474","Central","Phoenix","AZ","USA","Central, Phoenix, AZ","Central, Phoenix, AZ",-112.0595603,33.4358417
"475","Cesar Chavez","Laveen","AZ","USA","Cesar Chavez, Laveen, AZ","Cesar Chavez, Laveen, AZ",-112.1453273,33.3760045
"476","Chandler","Chandler","AZ","USA","Chandler, Chandler, AZ","Chandler, Chandler, AZ",-111.8412502,33.3061605
"477","Chandler","Gilbert","AZ","USA","Chandler, Gilbert, AZ","Chandler, Gilbert, AZ",-111.789027,33.3528264
"478","Chaparral","Paradise Valley","AZ","USA","Chaparral, Paradise Valley, AZ","Chaparral, Paradise Valley, AZ",-111.8740367,33.509485
"479","Chaparral","Scottsdale","AZ","USA","Chaparral, Scottsdale, AZ","Chaparral, Scottsdale, AZ",-111.932348,33.576638
"480","Cibola","Yuma","AZ","USA","Cibola, Yuma, AZ","Cibola, Yuma, AZ",-114.6687939,32.6918505
"481","Cienega","Coronado Ntl Forest","AZ","USA","Cienega, Coronado Ntl Forest, AZ","Cienega, Coronado Ntl Forest, AZ",-110.402376,31.8630332
"482","Cienega","Tucson","AZ","USA","Cienega, Tucson, AZ","Cienega, Tucson, AZ",-110.7219516,32.0574081
"483","Corona Del Sol","Tempe","AZ","USA","Corona Del Sol, Tempe, AZ","Corona Del Sol, Tempe, AZ",-111.9172232,33.3308749
"484","Deer Valley","Glendale","AZ","USA","Deer Valley, Glendale, AZ","Deer Valley, Glendale, AZ",-112.1191757,33.6695691
"485","Deer Valley","Phoenix","AZ","USA","Deer Valley, Phoenix, AZ","Deer Valley, Phoenix, AZ",-112.1191757,33.6695691
"486","Desert Edge","Goodyear","AZ","USA","Desert Edge, Goodyear, AZ","Desert Edge, Goodyear, AZ",-112.3984972,33.4378175
"487","Desert Mountain","Scottsdale","AZ","USA","Desert Mountain, Scottsdale, AZ","Desert Mountain, Scottsdale, AZ",-111.8628205,33.8608826
"488","Desert Ridge","Mesa","AZ","USA","Desert Ridge, Mesa, AZ","Desert Ridge, Mesa, AZ",-111.6159831,33.3702157
"489","Desert Vista","Phoenix","AZ","USA","Desert Vista, Phoenix, AZ","Desert Vista, Phoenix, AZ",-112.0319877,33.5854675
"490","Dobson","Mesa","AZ","USA","Dobson, Mesa, AZ","Dobson, Mesa, AZ",-111.8653666,33.3763236
"491","Flagstaff","Flagstaff","AZ","USA","Flagstaff, Flagstaff, AZ","Flagstaff, Flagstaff, AZ",-111.651302,35.1982836
"492","Florence","Florence","AZ","USA","Florence, Florence, AZ","Florence, Florence, AZ",-111.3873431,33.0314508
"493","Gilbert","Gilbert","AZ","USA","Gilbert, Gilbert, AZ","Gilbert, Gilbert, AZ",-111.789027,33.3528264
"494","Glendale","Glendale","AZ","USA","Glendale, Glendale, AZ","Glendale, Glendale, AZ",-112.1859866,33.5386523
"495","Greenway","Phoenix","AZ","USA","Greenway, Phoenix, AZ","Greenway, Phoenix, AZ",-112.1091157,33.6206046
"496","Hamilton","Chandler","AZ","USA","Hamilton, Chandler, AZ","Hamilton, Chandler, AZ",-111.8430871,33.2520276
"497","Highland","Gilbert","AZ","USA","Highland, Gilbert, AZ","Highland, Gilbert, AZ",-111.8101069,33.33164
"498","Higley","Gilbert","AZ","USA","Higley, Gilbert, AZ","Higley, Gilbert, AZ",-111.7211026,33.2960947
"499","Horizon","Scottsdale","AZ","USA","Horizon, Scottsdale, AZ","Horizon, Scottsdale, AZ",-111.8813974,33.6181035
"500","Ironwood","Glendale","AZ","USA","Ironwood, Glendale, AZ","Ironwood, Glendale, AZ",-112.1553974,33.5180396
"501","Ironwood Ridge","Tucson","AZ","USA","Ironwood Ridge, Tucson, AZ","Ironwood Ridge, Tucson, AZ",-111.0208406,32.408522
"502","Lake Havasu","Lake Havasu City","AZ","USA","Lake Havasu, Lake Havasu City, AZ","Lake Havasu, Lake Havasu City, AZ",-114.3224548,34.483901
"503","Liberty","Globe","AZ","USA","Liberty, Globe, AZ","Liberty, Globe, AZ",-110.7753944,33.4012045
"504","Liberty","Peoria","AZ","USA","Liberty, Peoria, AZ","Liberty, Peoria, AZ",-112.2662656,33.6859158
"505","Marana","Marana","AZ","USA","Marana, Marana, AZ","Marana, Marana, AZ",-111.2224422,32.436381
"506","Marcos De Niza","Tempe","AZ","USA","Marcos De Niza, Tempe, AZ","Marcos De Niza, Tempe, AZ",-111.9217227,33.3658429
"507","Maricopa","Maricopa","AZ","USA","Maricopa, Maricopa, AZ","Maricopa, Maricopa, AZ",-112.0476423,33.0581063
"508","Maryvale","Phoenix","AZ","USA","Maryvale, Phoenix, AZ","Maryvale, Phoenix, AZ",-112.1776524,33.5019864
"509","Mcclintock","Tempe","AZ","USA","Mcclintock, Tempe, AZ","Mcclintock, Tempe, AZ",-111.9060446,33.3963282
"510","Mesa","Mesa","AZ","USA","Mesa, Mesa, AZ","Mesa, Mesa, AZ",-111.8314724,33.4151843
"511","Mesquite","Gilbert","AZ","USA","Mesquite, Gilbert, AZ","Mesquite, Gilbert, AZ",-111.8195389,33.3415272
"512","Millennium","Goodyear","AZ","USA","Millennium, Goodyear, AZ","Millennium, Goodyear, AZ",-112.3772714,33.4945373
"513","Moon Valley","Phoenix","AZ","USA","Moon Valley, Phoenix, AZ","Moon Valley, Phoenix, AZ",-112.0722287,33.6191954
"514","Mount Douglas","Benson","AZ","USA","Mount Douglas, Benson, AZ","Mount Douglas, Benson, AZ",-109.5453447,31.3445471
"515","Mountain Pointe","Phoenix","AZ","USA","Mountain Pointe, Phoenix, AZ","Mountain Pointe, Phoenix, AZ",-111.9906404,33.3259495
"516","Mountain Ridge","Glendale","AZ","USA","Mountain Ridge, Glendale, AZ","Mountain Ridge, Glendale, AZ",-112.2042181,33.6898728
"517","Mountain View","Mesa","AZ","USA","Mountain View, Mesa, AZ","Mountain View, Mesa, AZ",-111.7721135,33.4387311
"518","Mountain View","Tucson","AZ","USA","Mountain View, Tucson, AZ","Mountain View, Tucson, AZ",-110.6817486,32.0025816
"519","New Visions Academy - St. John's Campus","Saint Johns","AZ","USA","New Visions Academy - St. John's Campus, Saint Johns, AZ","New Visions Academy - St. John's Campus, Saint Johns, AZ",-109.3609327,34.5058698
"520","North Canyon","Phoenix","AZ","USA","North Canyon, Phoenix, AZ","North Canyon, Phoenix, AZ",-112.0433521,33.6566745
"521","Notre Dame Preparatory","Scottsdale","AZ","USA","Notre Dame Preparatory, Scottsdale, AZ","Notre Dame Preparatory, Scottsdale, AZ",-111.8703104,33.6370049
"522","Palo Verde Magnet School","Tucson","AZ","USA","Palo Verde Magnet School, Tucson, AZ","Palo Verde Magnet School, Tucson, AZ",-110.8443953,32.2051293
"523","Paradise Valley","Phoenix","AZ","USA","Paradise Valley, Phoenix, AZ","Paradise Valley, Phoenix, AZ",-111.9760964,33.6111814
"524","Peoria","Peoria","AZ","USA","Peoria, Peoria, AZ","Peoria, Peoria, AZ",-112.2373779,33.5805955
"525","Perry","Gilbert","AZ","USA","Perry, Gilbert, AZ","Perry, Gilbert, AZ",-111.7478395,33.2618766
"526","Phoenix Christian Unified Schools","Phoenix","AZ","USA","Phoenix Christian Unified Schools, Phoenix, AZ","Phoenix Christian Unified Schools, Phoenix, AZ",-112.0971118,33.4946446
"527","Pinnacle","Phoenix","AZ","USA","Pinnacle, Phoenix, AZ","Pinnacle, Phoenix, AZ",-112.0077805,33.6795278
"528","Prescott","Prescott","AZ","USA","Prescott, Prescott, AZ","Prescott, Prescott, AZ",-112.4685025,34.5400242
"529","Queen Creek","Queen Creek","AZ","USA","Queen Creek, Queen Creek, AZ","Queen Creek, Queen Creek, AZ",-111.6345554,33.2486083
"530","Raymond S. Kellis","Glendale","AZ","USA","Raymond S. Kellis, Glendale, AZ","Raymond S. Kellis, Glendale, AZ",-112.2527456,33.5462442
"531","Red Mountain","Mesa","AZ","USA","Red Mountain, Mesa, AZ","Red Mountain, Mesa, AZ",-111.677858,33.4748092
"532","Rincon","Tucson","AZ","USA","Rincon, Tucson, AZ","Rincon, Tucson, AZ",-110.9925549,32.1816079
"533","Round Valley","Springerville","AZ","USA","Round Valley, Springerville, AZ","Round Valley, Springerville, AZ",-109.2895775,34.1257418
"534","Sabino","Tucson","AZ","USA","Sabino, Tucson, AZ","Sabino, Tucson, AZ",-110.8129656,32.3034935
"535","Safford","Safford","AZ","USA","Safford, Safford, AZ","Safford, Safford, AZ",-109.70758,32.8339546
"536","Saguaro","Chandler","AZ","USA","Saguaro, Chandler, AZ","Saguaro, Chandler, AZ",-111.869939,33.3213026
"537","Saguaro","Scottsdale","AZ","USA","Saguaro, Scottsdale, AZ","Saguaro, Scottsdale, AZ",-111.9227616,33.4941213
"538","Saguaro","Tempe","AZ","USA","Saguaro, Tempe, AZ","Saguaro, Tempe, AZ",-111.9714218,33.3891021
"539","Sahuaro","Tucson","AZ","USA","Sahuaro, Tucson, AZ","Sahuaro, Tucson, AZ",-110.9684347,32.1738899
"540","Salpointe Catholic","Tucson","AZ","USA","Salpointe Catholic, Tucson, AZ","Salpointe Catholic, Tucson, AZ",-110.9504775,32.2545514
"541","Sandra Day O'connor","Glendale","AZ","USA","Sandra Day O'connor, Glendale, AZ","Sandra Day O'connor, Glendale, AZ",-112.136518,33.717254
"542","Santa Rita","Tucson","AZ","USA","Santa Rita, Tucson, AZ","Santa Rita, Tucson, AZ",-110.8231232,32.1759326
"543","Scottsdale Christian Academy","Phoenix","AZ","USA","Scottsdale Christian Academy, Phoenix, AZ","Scottsdale Christian Academy, Phoenix, AZ",-111.979048,33.617367
"544","Shadow Mountain","Phoenix","AZ","USA","Shadow Mountain, Phoenix, AZ","Shadow Mountain, Phoenix, AZ",-112.0096313,33.6162472
"545","Show Low","Show Low","AZ","USA","Show Low, Show Low, AZ","Show Low, Show Low, AZ",-110.0298327,34.2542084
"546","Sinagua","Flagstaff","AZ","USA","Sinagua, Flagstaff, AZ","Sinagua, Flagstaff, AZ",-111.6035634,35.1958364
"547","Skyline","Mesa","AZ","USA","Skyline, Mesa, AZ","Skyline, Mesa, AZ",-111.6411574,33.362539
"548","South Mountain","Phoenix","AZ","USA","South Mountain, Phoenix, AZ","South Mountain, Phoenix, AZ",-112.0714835,33.380303
"549","St Marys","Phoenix","AZ","USA","St Marys, Phoenix, AZ","St Marys, Phoenix, AZ",-112.0693678,33.4506955
"550","St. Mary's","Phoenix","AZ","USA","St. Mary's, Phoenix, AZ","St. Mary's, Phoenix, AZ",-112.0686586,33.4749498
"551","St. Thomas Aquinas","Yuma","AZ","USA","St. Thomas Aquinas, Yuma, AZ","St. Thomas Aquinas, Yuma, AZ",-114.5161005,32.6655231
"552","Sunnyside","Tucson","AZ","USA","Sunnyside, Tucson, AZ","Sunnyside, Tucson, AZ",-110.9775758,32.1486952
"553","Sunnyslope","Phoenix","AZ","USA","Sunnyslope, Phoenix, AZ","Sunnyslope, Phoenix, AZ",-112.0651494,33.5658748
"554","Sunrise Mountain","Peoria","AZ","USA","Sunrise Mountain, Peoria, AZ","Sunrise Mountain, Peoria, AZ",-112.2383044,33.6773264
"555","Tafuna","Tucson","AZ","USA","Tafuna, Tucson, AZ","Tafuna, Tucson, AZ",-170.7269854,-14.331296
"556","Tempe","Tempe","AZ","USA","Tempe, Tempe, AZ","Tempe, Tempe, AZ",-111.9400054,33.4255104
"557","Thatcher","Thatcher","AZ","USA","Thatcher, Thatcher, AZ","Thatcher, Thatcher, AZ",-109.7592479,32.8492323
"558","Thunderbird","Phoenix","AZ","USA","Thunderbird, Phoenix, AZ","Thunderbird, Phoenix, AZ",-112.0112149,33.6113786
"559","Tolleson Union","Tolleson","AZ","USA","Tolleson Union, Tolleson, AZ","Tolleson Union, Tolleson, AZ",-112.262246,33.4298523
"560","Trevor Browne","Phoenix","AZ","USA","Trevor Browne, Phoenix, AZ","Trevor Browne, Phoenix, AZ",-112.2199594,33.4832326
"561","Tucson Magnet","Tucson","AZ","USA","Tucson Magnet, Tucson, AZ","Tucson Magnet, Tucson, AZ",-110.9616089,32.2270858
"562","Valley Christian","Chandler","AZ","USA","Valley Christian, Chandler, AZ","Valley Christian, Chandler, AZ",-111.962124,33.313239
"563","Valley Vista","Surprise","AZ","USA","Valley Vista, Surprise, AZ","Valley Vista, Surprise, AZ",-112.3917255,33.6258667
"564","Verrado","B M Goldwater A F Range","AZ","USA","Verrado, B M Goldwater A F Range, AZ","Verrado, B M Goldwater A F Range, AZ",-112.5066293,33.4846579
"565","Washington","Phoenix","AZ","USA","Washington, Phoenix, AZ","Washington, Phoenix, AZ",-112.0183571,33.4481003
"566","Washington","Scottsdale","AZ","USA","Washington, Scottsdale, AZ","Washington, Scottsdale, AZ",-111.9274182,33.5341142
"567","Westview","Tolleson","AZ","USA","Westview, Tolleson, AZ","Westview, Tolleson, AZ",-112.292487,33.490018
"568","Williams","Williams","AZ","USA","Williams, Williams, AZ","Williams, Williams, AZ",-112.1910031,35.2494566
"569","Williams Field","Gilbert","AZ","USA","Williams Field, Gilbert, AZ","Williams Field, Gilbert, AZ",-111.722,33.314184
"570","Willow Canyon","Surprise","AZ","USA","Willow Canyon, Surprise, AZ","Willow Canyon, Surprise, AZ",-112.4431975,33.6352328
"571","Youngker","B M Goldwater A F Range","AZ","USA","Youngker, B M Goldwater A F Range, AZ","Youngker, B M Goldwater A F Range, AZ",-113.4776098,32.6625147
"572","Yuma Catholic","Yuma","AZ","USA","Yuma Catholic, Yuma, AZ","Yuma Catholic, Yuma, AZ",-114.6448445,32.6766708
"573","Abbotsford","Abbotsford","BC","Canada","Abbotsford, Abbotsford, BC","Abbotsford, Abbotsford, BC",-122.3044697,49.0504377
"574","Belmont","Victoria","BC","Canada","Belmont, Victoria, BC","Belmont, Victoria, BC",-123.5299204,48.4431489
"575","Chaminade","North Vancouver","BC","Canada","Chaminade, North Vancouver, BC","Chaminade, North Vancouver, BC",-123.0724139,49.3199816
"576","Clearwater Academy International","North Vancouver","BC","Canada","Clearwater Academy International, North Vancouver, BC","Clearwater Academy International, North Vancouver, BC",-82.7955034,27.9678526
"577","Kelowna Secondary School","Port Coquitlam","BC","Canada","Kelowna Secondary School, Port Coquitlam, BC","Kelowna Secondary School, Port Coquitlam, BC",-122.789216,49.255896
"578","Kew High School","Abbotsford","BC","Canada","Kew High School, Abbotsford, BC","Kew High School, Abbotsford, BC",145.063284,-37.795756
"579","New Westminster","New Westminster","BC","Canada","New Westminster, New Westminster, BC","New Westminster, New Westminster, BC",-122.910956,49.2057179
"580","Terry Fox","Port Coquitlam","BC","Canada","Terry Fox, Port Coquitlam, BC","Terry Fox, Port Coquitlam, BC",-122.7483929,49.2625002
"581","Vancouver College Prep","North Vancouver","BC","Canada","Vancouver College Prep, North Vancouver, BC","Vancouver College Prep, North Vancouver, BC",-123.0736652,49.322309
"582","WJ Mouat Secondary","Victoria","BC","Canada","WJ Mouat Secondary, Victoria, BC","WJ Mouat Secondary, Victoria, BC",-122.3272719,49.0593674
"583","A.B. Miller","Fontana","CA","USA","A.B. Miller, Fontana, CA","A.B. Miller, Fontana, CA",-117.4460949,34.130724
"584","Acalanes","Lafayette","CA","USA","Acalanes, Lafayette, CA","Acalanes, Lafayette, CA",-122.151897,37.8730398
"585","Adolfo Camarillo","Camarillo","CA","USA","Adolfo Camarillo, Camarillo, CA","Adolfo Camarillo, Camarillo, CA",-119.0084031,34.2181293
"586","Adrian Wilcox","Santa Clara","CA","USA","Adrian Wilcox, Santa Clara, CA","Adrian Wilcox, Santa Clara, CA",-121.9861922,37.3662513
"587","Agape Academy","Mission Viejo","CA","USA","Agape Academy, Mission Viejo, CA","Agape Academy, Mission Viejo, CA",-117.6581562,33.5968913
"588","Agoura","Agoura Hills","CA","USA","Agoura, Agoura Hills, CA","Agoura, Agoura Hills, CA",-118.7573324,34.1541205
"589","Alain Leroy Locke Senior","Los Angeles","CA","USA","Alain Leroy Locke Senior, Los Angeles, CA","Alain Leroy Locke Senior, Los Angeles, CA",-118.2684659,33.9353955
"590","Alameda","Alameda","CA","USA","Alameda, Alameda, CA","Alameda, Alameda, CA",-122.2821855,37.7798721
"591","Alhambra","Alhambra","CA","USA","Alhambra, Alhambra, CA","Alhambra, Alhambra, CA",-118.1270146,34.095287
"592","Alhambra Senior","Martinez","CA","USA","Alhambra Senior, Martinez, CA","Alhambra Senior, Martinez, CA",-122.1333639,38.0025956
"593","Aliso Niguel","Aliso Viejo","CA","USA","Aliso Niguel, Aliso Viejo, CA","Aliso Niguel, Aliso Viejo, CA",-117.7193706,33.5617208
"594","Alta Loma","Rancho Cucamonga","CA","USA","Alta Loma, Rancho Cucamonga, CA","Alta Loma, Rancho Cucamonga, CA",-117.5981086,34.1222317
"595","Amador Valley","Pleasanton","CA","USA","Amador Valley, Pleasanton, CA","Amador Valley, Pleasanton, CA",-121.8739141,37.6679098
"596","American Canyon","American Canyon","CA","USA","American Canyon, American Canyon, CA","American Canyon, American Canyon, CA",-122.2608044,38.1749178
"597","Anaheim","Anaheim","CA","USA","Anaheim, Anaheim, CA","Anaheim, Anaheim, CA",-117.9143012,33.8365932
"598","Analy","Sebastopol","CA","USA","Analy, Sebastopol, CA","Analy, Sebastopol, CA",-122.8262259,38.4072423
"599","Anderson","Anderson","CA","USA","Anderson, Anderson, CA","Anderson, Anderson, CA",-122.2977815,40.448208
"600","Andrew P. Hill","San Jose","CA","USA","Andrew P. Hill, San Jose, CA","Andrew P. Hill, San Jose, CA",-121.8312164,37.2922264
"601","Angelo Rodriguez","Fairfield","CA","USA","Angelo Rodriguez, Fairfield, CA","Angelo Rodriguez, Fairfield, CA",-122.1463946,38.1995513
"602","Animo Venice Charter","Los Angeles","CA","USA","Animo Venice Charter, Los Angeles, CA","Animo Venice Charter, Los Angeles, CA",-118.462882,33.9965264
"603","Antelope","Antelope","CA","USA","Antelope, Antelope, CA","Antelope, Antelope, CA",-121.3644216,38.7166871
"604","Antelope Valley","Lancaster","CA","USA","Antelope Valley, Lancaster, CA","Antelope Valley, Lancaster, CA",-118.2522977,34.7513712
"605","Antelope View Charter","Antelope","CA","USA","Antelope View Charter, Antelope, CA","Antelope View Charter, Antelope, CA",-121.3864574,38.7196864
"606","Antioch","Antioch","CA","USA","Antioch, Antioch, CA","Antioch, Antioch, CA",-121.805789,38.0049214
"607","Apple Valley","Apple Valley","CA","USA","Apple Valley, Apple Valley, CA","Apple Valley, Apple Valley, CA",-117.1858759,34.5008311
"608","Aquinas","San Bernardino","CA","USA","Aquinas, San Bernardino, CA","Aquinas, San Bernardino, CA",-117.2451981,34.1419897
"609","Aragon","San Mateo","CA","USA","Aragon, San Mateo, CA","Aragon, San Mateo, CA",-122.3291748,37.555132
"610","Arcadia","Arcadia","CA","USA","Arcadia, Arcadia, CA","Arcadia, Arcadia, CA",-118.0353449,34.1397292
"611","Archbishop Mitty","San Jose","CA","USA","Archbishop Mitty, San Jose, CA","Archbishop Mitty, San Jose, CA",-121.9932495,37.3152241
"612","Archbishop Riordan","Daly City","CA","USA","Archbishop Riordan, Daly City, CA","Archbishop Riordan, Daly City, CA",-122.4527069,37.7277417
"613","Argonaut","Jackson","CA","USA","Argonaut, Jackson, CA","Argonaut, Jackson, CA",-120.7767419,38.3563501
"614","Arlington","Riverside","CA","USA","Arlington, Riverside, CA","Arlington, Riverside, CA",-117.4465139,33.920391
"615","Armijo","Fairfield","CA","USA","Armijo, Fairfield, CA","Armijo, Fairfield, CA",-122.037594,38.250993
"616","Arnold O. Beckman","Tustin","CA","USA","Arnold O. Beckman, Tustin, CA","Arnold O. Beckman, Tustin, CA",-117.7824594,33.7176198
"617","Arroyo Grande","Arroyo Grande","CA","USA","Arroyo Grande, Arroyo Grande, CA","Arroyo Grande, Arroyo Grande, CA",-120.5907252,35.1185868
"618","Arroyo Valley","San Bernardino","CA","USA","Arroyo Valley, San Bernardino, CA","Arroyo Valley, San Bernardino, CA",-117.3277129,34.1186196
"619","Artesia","Lakewood","CA","USA","Artesia, Lakewood, CA","Artesia, Lakewood, CA",-118.0757531,33.8459211
"620","Atascadero","Atascadero","CA","USA","Atascadero, Atascadero, CA","Atascadero, Atascadero, CA",-120.6707255,35.4894169
"621","Bakersfield","Bakersfield","CA","USA","Bakersfield, Bakersfield, CA","Bakersfield, Bakersfield, CA",-119.0187125,35.3732921
"622","Bakersfield Christian","Bakersfield","CA","USA","Bakersfield Christian, Bakersfield, CA","Bakersfield Christian, Bakersfield, CA",-119.1440181,35.3526963
"623","Baldwin Park","Baldwin Park","CA","USA","Baldwin Park, Baldwin Park, CA","Baldwin Park, Baldwin Park, CA",-117.9608978,34.0852868
"624","Banning","Banning","CA","USA","Banning, Banning, CA","Banning, Banning, CA",-116.8764103,33.9255713
"625","Barstow","Barstow","CA","USA","Barstow, Barstow, CA","Barstow, Barstow, CA",-117.0172826,34.8957957
"626","Bear Creek","Stockton","CA","USA","Bear Creek, Stockton, CA","Bear Creek, Stockton, CA",-121.3421853,38.048775
"627","Bellarmine Prep","Morgan Hill","CA","USA","Bellarmine Prep, Morgan Hill, CA","Bellarmine Prep, Morgan Hill, CA",-121.9187738,37.3435065
"628","Bellarmine Prep","San Jose","CA","USA","Bellarmine Prep, San Jose, CA","Bellarmine Prep, San Jose, CA",-121.9187738,37.3435065
"629","Bellflower","Bellflower","CA","USA","Bellflower, Bellflower, CA","Bellflower, Bellflower, CA",-118.1170117,33.8816818
"630","Benjamin Franklin Senior","Los Angeles","CA","USA","Benjamin Franklin Senior, Los Angeles, CA","Benjamin Franklin Senior, Los Angeles, CA",-118.1987917,34.1154172
"631","Berean Christian","Walnut Creek","CA","USA","Berean Christian, Walnut Creek, CA","Berean Christian, Walnut Creek, CA",-122.032613,37.913751
"632","Berkeley","Berkeley","CA","USA","Berkeley, Berkeley, CA","Berkeley, Berkeley, CA",-122.273042,37.8715226
"633","Beverly Hills","Beverly Hills","CA","USA","Beverly Hills, Beverly Hills, CA","Beverly Hills, Beverly Hills, CA",-118.4003563,34.0736204
"634","Birmingham","Granada Hills","CA","USA","Birmingham, Granada Hills, CA","Birmingham, Granada Hills, CA",-118.484444,34.2580752
"635","Birmingham","Valencia","CA","USA","Birmingham, Valencia, CA","Birmingham, Valencia, CA",-118.5045983,34.1887959
"636","Birmingham","Van Nuys","CA","USA","Birmingham, Van Nuys, CA","Birmingham, Van Nuys, CA",-118.5045983,34.1887959
"637","Bishop","Bishop","CA","USA","Bishop, Bishop, CA","Bishop, Bishop, CA",-118.3996636,37.3614238
"638","Bishop Alemany","Covina","CA","USA","Bishop Alemany, Covina, CA","Bishop Alemany, Covina, CA",-118.4612937,34.2749238
"639","Bishop Alemany","Mission Hills","CA","USA","Bishop Alemany, Mission Hills, CA","Bishop Alemany, Mission Hills, CA",-118.4612937,34.2749238
"640","Bishop Alemany","Pasadena","CA","USA","Bishop Alemany, Pasadena, CA","Bishop Alemany, Pasadena, CA",-118.4612937,34.2749238
"641","Bishop Amat","Diamond Bar","CA","USA","Bishop Amat, Diamond Bar, CA","Bishop Amat, Diamond Bar, CA",-117.9646098,34.0543703
"642","Bishop Amat","La Puente","CA","USA","Bishop Amat, La Puente, CA","Bishop Amat, La Puente, CA",-117.9646098,34.0543703
"643","Bishop Garcia Diego","Santa Barbara","CA","USA","Bishop Garcia Diego, Santa Barbara, CA","Bishop Garcia Diego, Santa Barbara, CA",-119.7588805,34.4448113
"644","Bishop Montgomery","Torrance","CA","USA","Bishop Montgomery, Torrance, CA","Bishop Montgomery, Torrance, CA",-118.3734314,33.836524
"645","Bishop O'Dowd","Oakland","CA","USA","Bishop O'Dowd, Oakland, CA","Bishop O'Dowd, Oakland, CA",-122.1546971,37.7532646
"646","Blair","Pasadena","CA","USA","Blair, Pasadena, CA","Blair, Pasadena, CA",-118.1461844,34.126399
"647","Bloomington","Bloomington","CA","USA","Bloomington, Bloomington, CA","Bloomington, Bloomington, CA",-117.3954101,34.0716339
"648","Bonita Vista","Chula Vista","CA","USA","Bonita Vista, Chula Vista, CA","Bonita Vista, Chula Vista, CA",-116.9995559,32.6459088
"649","Branham","San Jose","CA","USA","Branham, San Jose, CA","Branham, San Jose, CA",-121.8781381,37.2625208
"650","Brawley","Brawley","CA","USA","Brawley, Brawley, CA","Brawley, Brawley, CA",-115.530267,32.9786566
"651","Brea-olinda","Brea","CA","USA","Brea-olinda, Brea, CA","Brea-olinda, Brea, CA",-117.9002918,33.916475
"652","Buchanan","Clovis","CA","USA","Buchanan, Clovis, CA","Buchanan, Clovis, CA",-119.712578,36.8578709
"653","Buena","Ventura","CA","USA","Buena, Ventura, CA","Buena, Ventura, CA",-119.2133998,34.2636233
"654","Buena Park","Buena Park","CA","USA","Buena Park, Buena Park, CA","Buena Park, Buena Park, CA",-117.9981387,33.8674044
"655","Buena Park","Yorba Linda","CA","USA","Buena Park, Yorba Linda, CA","Buena Park, Yorba Linda, CA",-117.7655573,33.8895807
"656","Buhach Colony","Atwater","CA","USA","Buhach Colony, Atwater, CA","Buhach Colony, Atwater, CA",-120.5743205,37.348628
"657","Bullard","Fresno","CA","USA","Bullard, Fresno, CA","Bullard, Fresno, CA",-119.8570731,36.8230422
"658","Burbank","Burbank","CA","USA","Burbank, Burbank, CA","Burbank, Burbank, CA",-118.3089661,34.1808392
"659","Burroughs","Burbank","CA","USA","Burroughs, Burbank, CA","Burroughs, Burbank, CA",-118.3272254,34.1686295
"660","Burroughs","Ridgecrest","CA","USA","Burroughs, Ridgecrest, CA","Burroughs, Ridgecrest, CA",-117.6594539,35.6359364
"661","Cabrillo","Lompoc","CA","USA","Cabrillo, Lompoc, CA","Cabrillo, Lompoc, CA",-120.4754228,34.7113627
"662","Cajon","San Bernardino","CA","USA","Cajon, San Bernardino, CA","Cajon, San Bernardino, CA",-117.298472,34.1745924
"663","Calabasas","Calabasas","CA","USA","Calabasas, Calabasas, CA","Calabasas, Calabasas, CA",-118.6614809,34.1367208
"664","Calabasas","Carson","CA","USA","Calabasas, Carson, CA","Calabasas, Carson, CA",-118.281693,33.8316745
"665","Calabasas","Mission Viejo","CA","USA","Calabasas, Mission Viejo, CA","Calabasas, Mission Viejo, CA",-118.6614809,34.1367208
"666","Calabasas","West Hills","CA","USA","Calabasas, West Hills, CA","Calabasas, West Hills, CA",-118.6427554,34.1568738
"667","California","San Ramon","CA","USA","California, San Ramon, CA","California, San Ramon, CA",-121.9539616,37.7643595
"668","Calipatria","Calipatria","CA","USA","Calipatria, Calipatria, CA","Calipatria, Calipatria, CA",-115.5141538,33.1255957
"669","Campbell Hall School","Valley Village","CA","USA","Campbell Hall School, Valley Village, CA","Campbell Hall School, Valley Village, CA",-118.398326,34.153547
"670","Campolindo","Moraga","CA","USA","Campolindo, Moraga, CA","Campolindo, Moraga, CA",-122.1334433,37.8726996
"671","Canoga Park","Canoga Park","CA","USA","Canoga Park, Canoga Park, CA","Canoga Park, Canoga Park, CA",-118.6058609,34.208254
"672","Canyon","Anaheim","CA","USA","Canyon, Anaheim, CA","Canyon, Anaheim, CA",-117.7883558,33.8471403
"673","Canyon","Canyon Country","CA","USA","Canyon, Canyon Country, CA","Canyon, Canyon Country, CA",-118.4417853,34.4186585
"674","Canyon","Santa Clarita","CA","USA","Canyon, Santa Clarita, CA","Canyon, Santa Clarita, CA",-118.5561762,34.4153147
"675","Canyon Springs","Moreno Valley","CA","USA","Canyon Springs, Moreno Valley, CA","Canyon Springs, Moreno Valley, CA",-117.2580443,33.9627409
"676","Capistrano Valley","Mission Viejo","CA","USA","Capistrano Valley, Mission Viejo, CA","Capistrano Valley, Mission Viejo, CA",-117.6697936,33.5415426
"677","Capistrano Valley Christian School","San Juan Capistrano","CA","USA","Capistrano Valley Christian School, San Juan Capistrano, CA","Capistrano Valley Christian School, San Juan Capistrano, CA",-117.6703816,33.4976254
"678","Capital Christian","Sacramento","CA","USA","Capital Christian, Sacramento, CA","Capital Christian, Sacramento, CA",-121.3456626,38.5604869
"679","Cardinal Newman","Santa Rosa","CA","USA","Cardinal Newman, Santa Rosa, CA","Cardinal Newman, Santa Rosa, CA",-122.7410273,38.492971
"680","Carlsbad","Carlsbad","CA","USA","Carlsbad, Carlsbad, CA","Carlsbad, Carlsbad, CA",-117.3505939,33.1580933
"681","Carpinteria Senior","Carpinteria","CA","USA","Carpinteria Senior, Carpinteria, CA","Carpinteria Senior, Carpinteria, CA",-119.5245029,34.400512
"682","Carson Senior","Carson","CA","USA","Carson Senior, Carson, CA","Carson Senior, Carson, CA",-118.2755011,33.8237889
"683","Casa Grande","Petaluma","CA","USA","Casa Grande, Petaluma, CA","Casa Grande, Petaluma, CA",-122.59798,38.2424655
"684","Castle Park Senior","Chula Vista","CA","USA","Castle Park Senior, Chula Vista, CA","Castle Park Senior, Chula Vista, CA",-117.0675278,32.6103329
"685","Castlemont","Oakland","CA","USA","Castlemont, Oakland, CA","Castlemont, Oakland, CA",-122.1646708,37.7558436
"686","Castro Valley","Castro Valley","CA","USA","Castro Valley, Castro Valley, CA","Castro Valley, Castro Valley, CA",-122.0738678,37.6955029
"687","Cathedral","Los Angeles","CA","USA","Cathedral, Los Angeles, CA","Cathedral, Los Angeles, CA",-118.2449948,34.0577215
"688","Cathedral Catholic","San Diego","CA","USA","Cathedral Catholic, San Diego, CA","Cathedral Catholic, San Diego, CA",-117.201469,32.959656
"689","Cathedral City","Cathedral City","CA","USA","Cathedral City, Cathedral City, CA","Cathedral City, Cathedral City, CA",-116.4668036,33.7805388
"690","Centennial","Bakersfield","CA","USA","Centennial, Bakersfield, CA","Centennial, Bakersfield, CA",-119.0979764,35.3982686
"691","Centennial","Compton","CA","USA","Centennial, Compton, CA","Centennial, Compton, CA",-118.2537334,33.915236
"692","Centennial","Corona","CA","USA","Centennial, Corona, CA","Centennial, Corona, CA",-117.5454121,33.8581918
"693","Center","Antelope","CA","USA","Center, Antelope, CA","Center, Antelope, CA",-121.3942882,38.7155212
"694","Central Catholic","Modesto","CA","USA","Central Catholic, Modesto, CA","Central Catholic, Modesto, CA",-121.0298437,37.6363741
"695","Central East","Dos Palos","CA","USA","Central East, Dos Palos, CA","Central East, Dos Palos, CA",-120.6265722,36.9860582
"696","Central East","Fresno","CA","USA","Central East, Fresno, CA","Central East, Fresno, CA",-119.8810214,36.7874097
"697","Central Valley Christian Academy","Ceres","CA","USA","Central Valley Christian Academy, Ceres, CA","Central Valley Christian Academy, Ceres, CA",-120.9595763,37.606632
"698","Central Valley Christian Schools","Visalia","CA","USA","Central Valley Christian Schools, Visalia, CA","Central Valley Christian Schools, Visalia, CA",-119.3526472,36.321983
"699","Cerritos","Cerritos","CA","USA","Cerritos, Cerritos, CA","Cerritos, Cerritos, CA",-118.0647871,33.8583483
"700","Chadwick School","Palos Verdes Peninsula","CA","USA","Chadwick School, Palos Verdes Peninsula, CA","Chadwick School, Palos Verdes Peninsula, CA",-118.3613112,33.7767455
"701","Chaminade","West Hills","CA","USA","Chaminade, West Hills, CA","Chaminade, West Hills, CA",-118.6357714,34.2078181
"702","Channel Islands","Oxnard","CA","USA","Channel Islands, Oxnard, CA","Channel Islands, Oxnard, CA",-119.2291726,34.1819189
"703","Chaparral","Murrieta","CA","USA","Chaparral, Murrieta, CA","Chaparral, Murrieta, CA",-117.215229,33.555149
"704","Chaparral","Temecula","CA","USA","Chaparral, Temecula, CA","Chaparral, Temecula, CA",-117.1475581,33.5383361
"705","Charter Oak","Covina","CA","USA","Charter Oak, Covina, CA","Charter Oak, Covina, CA",-117.8463974,34.0994408
"706","Chatsworth Senior","Chatsworth","CA","USA","Chatsworth Senior, Chatsworth, CA","Chatsworth Senior, Chatsworth, CA",-118.5870802,34.2575578
"707","Chino","Chino","CA","USA","Chino, Chino, CA","Chino, Chino, CA",-117.688944,34.0122346
"708","Chino Hills","Chino","CA","USA","Chino Hills, Chino, CA","Chino Hills, Chino, CA",-117.7325848,33.9898188
"709","Chino Hills","Chino Hills","CA","USA","Chino Hills, Chino Hills, CA","Chino Hills, Chino Hills, CA",-117.7325848,33.9898188
"710","Christian","El Cajon","CA","USA","Christian, El Cajon, CA","Christian, El Cajon, CA",-116.9030544,32.8008756
"711","Christian Brothers","Sacramento","CA","USA","Christian Brothers, Sacramento, CA","Christian Brothers, Sacramento, CA",-121.464157,38.535509
"712","Chula Vista Senior","Chula Vista","CA","USA","Chula Vista Senior, Chula Vista, CA","Chula Vista Senior, Chula Vista, CA",-116.970433,32.6628541
"713","Citrus Hill","Perris","CA","USA","Citrus Hill, Perris, CA","Citrus Hill, Perris, CA",-117.330155,33.856313
"714","Citrus Valley","Redlands","CA","USA","Citrus Valley, Redlands, CA","Citrus Valley, Redlands, CA",-117.1923902,34.0826358
"715","Clairemont","San Diego","CA","USA","Clairemont, San Diego, CA","Clairemont, San Diego, CA",-117.1936969,32.82414
"716","Claremont","Claremont","CA","USA","Claremont, Claremont, CA","Claremont, Claremont, CA",-117.7063071,34.0936737
"717","Clayton Valley","Concord","CA","USA","Clayton Valley, Concord, CA","Clayton Valley, Concord, CA",-122.0180173,37.966589
"718","Clear Lake","Lakeport","CA","USA","Clear Lake, Lakeport, CA","Clear Lake, Lakeport, CA",-122.9158293,39.0429506
"719","Clovis","Clovis","CA","USA","Clovis, Clovis, CA","Clovis, Clovis, CA",-119.7029194,36.8252277
"720","Clovis East","Clovis","CA","USA","Clovis East, Clovis, CA","Clovis East, Clovis, CA",-119.640017,36.7994655
"721","Clovis North","Clovis","CA","USA","Clovis North, Clovis, CA","Clovis North, Clovis, CA",-119.7334187,36.8897188
"722","Clovis West","Fresno","CA","USA","Clovis West, Fresno, CA","Clovis West, Fresno, CA",-119.762504,36.8611131
"723","Colfax","Colfax","CA","USA","Colfax, Colfax, CA","Colfax, Colfax, CA",-120.9563432,39.1012407
"724","College Park","Pleasant Hill","CA","USA","College Park, Pleasant Hill, CA","College Park, Pleasant Hill, CA",-122.0716713,37.9647601
"725","Colony","Ontario","CA","USA","Colony, Ontario, CA","Colony, Ontario, CA",-117.5691334,34.0183196
"726","Colton","Colton","CA","USA","Colton, Colton, CA","Colton, Colton, CA",-117.3136547,34.0739016
"727","Compton","Compton","CA","USA","Compton, Compton, CA","Compton, Compton, CA",-118.2200712,33.8958492
"728","Compton Dominguez","Carson","CA","USA","Compton Dominguez, Carson, CA","Compton Dominguez, Carson, CA",-118.224885,33.8508097
"729","Compton Dominguez","Compton","CA","USA","Compton Dominguez, Compton, CA","Compton Dominguez, Compton, CA",-118.1818288,33.892375
"730","Concord","Concord","CA","USA","Concord, Concord, CA","Concord, Concord, CA",-122.0310733,37.9779776
"731","Convent Of The Sacred Heart","San Francisco","CA","USA","Convent Of The Sacred Heart, San Francisco, CA","Convent Of The Sacred Heart, San Francisco, CA",-122.4338838,37.7952535
"732","Cordova","Rancho Cordova","CA","USA","Cordova, Rancho Cordova, CA","Cordova, Rancho Cordova, CA",-121.302728,38.5890723
"733","Corona","Corona","CA","USA","Corona, Corona, CA","Corona, Corona, CA",-117.5664384,33.8752935
"734","Corona Del Mar","Newport Beach","CA","USA","Corona Del Mar, Newport Beach, CA","Corona Del Mar, Newport Beach, CA",-117.8730142,33.5978595
"735","Cosumnes Oaks","Elk Grove","CA","USA","Cosumnes Oaks, Elk Grove, CA","Cosumnes Oaks, Elk Grove, CA",-121.397214,38.398504
"736","Crawford Idea","San Diego","CA","USA","Crawford Idea, San Diego, CA","Crawford Idea, San Diego, CA",-117.0758686,32.7521974
"737","Crenshaw","Los Angeles","CA","USA","Crenshaw, Los Angeles, CA","Crenshaw, Los Angeles, CA",-118.3403506,34.0181993
"738","Crenshaw","Pasadena","CA","USA","Crenshaw, Pasadena, CA","Crenshaw, Pasadena, CA",-118.3403506,34.0181993
"739","Crespi","Encino","CA","USA","Crespi, Encino, CA","Crespi, Encino, CA",-118.5213686,34.1618989
"740","Culver City","Culver City","CA","USA","Culver City, Culver City, CA","Culver City, Culver City, CA",-118.3964665,34.0211224
"741","Cupertino","Cupertino","CA","USA","Cupertino, Cupertino, CA","Cupertino, Cupertino, CA",-122.0321823,37.3229978
"742","Cypress","Cypress","CA","USA","Cypress, Cypress, CA","Cypress, Cypress, CA",-118.0556232,33.8355947
"743","Damien","La Verne","CA","USA","Damien, La Verne, CA","Damien, La Verne, CA",-117.7874815,34.1042871
"744","Dana Hills","Dana Point","CA","USA","Dana Hills, Dana Point, CA","Dana Hills, Dana Point, CA",-117.7004983,33.4776672
"745","David Starr Jordan Senior","Los Angeles","CA","USA","David Starr Jordan Senior, Los Angeles, CA","David Starr Jordan Senior, Los Angeles, CA",-118.2298545,33.944673
"746","Davis Senior","Davis","CA","USA","Davis Senior, Davis, CA","Davis Senior, Davis, CA",-121.7472167,38.5488502
"747","De Anza Senior","El Sobrante","CA","USA","De Anza Senior, El Sobrante, CA","De Anza Senior, El Sobrante, CA",-122.2868171,37.9686335
"748","De La Salle","Concord","CA","USA","De La Salle, Concord, CA","De La Salle, Concord, CA",-122.031717,37.9341676
"749","Deer Valley","Antioch","CA","USA","Deer Valley, Antioch, CA","Deer Valley, Antioch, CA",-121.775139,37.963683
"750","Del Campo","Fair Oaks","CA","USA","Del Campo, Fair Oaks, CA","Del Campo, Fair Oaks, CA",-121.3085968,38.6551369
"751","Del Norte","Crescent City","CA","USA","Del Norte, Crescent City, CA","Del Norte, Crescent City, CA",-124.2025913,41.7557501
"752","Del Oro","Loomis","CA","USA","Del Oro, Loomis, CA","Del Oro, Loomis, CA",-121.1791537,38.8348156
"753","Del Oro","Rocklin","CA","USA","Del Oro, Rocklin, CA","Del Oro, Rocklin, CA",-121.2570731,38.7799456
"754","Delta Charter","Tracy","CA","USA","Delta Charter, Tracy, CA","Delta Charter, Tracy, CA",-121.3242688,37.6680914
"755","Desert","Edwards","CA","USA","Desert, Edwards, CA","Desert, Edwards, CA",-117.943225,34.9241766
"756","Desert Chapel Christian","Palm Springs","CA","USA","Desert Chapel Christian, Palm Springs, CA","Desert Chapel Christian, Palm Springs, CA",-116.5276769,33.8125772
"757","Desert Sands Charter","Lancaster","CA","USA","Desert Sands Charter, Lancaster, CA","Desert Sands Charter, Lancaster, CA",-118.164172,34.684768
"758","Diamond Bar","Diamond Bar","CA","USA","Diamond Bar, Diamond Bar, CA","Diamond Bar, Diamond Bar, CA",-117.8103367,34.0286226
"759","Diamond Ranch","Pomona","CA","USA","Diamond Ranch, Pomona, CA","Diamond Ranch, Pomona, CA",-117.7784747,34.021841
"760","Dinuba","Dinuba","CA","USA","Dinuba, Dinuba, CA","Dinuba, Dinuba, CA",-119.3870656,36.5432837
"761","Dixon","Dixon","CA","USA","Dixon, Dixon, CA","Dixon, Dixon, CA",-121.8232958,38.4454641
"762","Don Lugo","Chino","CA","USA","Don Lugo, Chino, CA","Don Lugo, Chino, CA",-117.716058,34.0085308
"763","Dorsey","Los Angeles","CA","USA","Dorsey, Los Angeles, CA","Dorsey, Los Angeles, CA",-118.2484499,34.0079062
"764","Dos Palos","Dos Palos","CA","USA","Dos Palos, Dos Palos, CA","Dos Palos, Dos Palos, CA",-120.6265722,36.9860582
"765","Dos Pueblos Senior","Goleta","CA","USA","Dos Pueblos Senior, Goleta, CA","Dos Pueblos Senior, Goleta, CA",-119.8792207,34.4392099
"766","Dougherty Valley","San Ramon","CA","USA","Dougherty Valley, San Ramon, CA","Dougherty Valley, San Ramon, CA",-121.9023247,37.7692188
"767","Downey","Downey","CA","USA","Downey, Downey, CA","Downey, Downey, CA",-118.1331593,33.9401088
"768","Duarte","Duarte","CA","USA","Duarte, Duarte, CA","Duarte, Duarte, CA",-117.9772873,34.1394513
"769","Dublin","Dublin","CA","USA","Dublin, Dublin, CA","Dublin, Dublin, CA",-121.9101221,37.7159396
"770","East Bakersfield","Bakersfield","CA","USA","East Bakersfield, Bakersfield, CA","East Bakersfield, Bakersfield, CA",-118.9732411,35.3862176
"771","East Valley","Redlands","CA","USA","East Valley, Redlands, CA","East Valley, Redlands, CA",-117.1289571,34.0618322
"772","Eastlake","Chula Vista","CA","USA","Eastlake, Chula Vista, CA","Eastlake, Chula Vista, CA",-116.976412,32.6556653
"773","Eastside Christian Schools","Fullerton","CA","USA","Eastside Christian Schools, Fullerton, CA","Eastside Christian Schools, Fullerton, CA",-117.9581378,33.8675067
"774","Edison","Fresno","CA","USA","Edison, Fresno, CA","Edison, Fresno, CA",-119.8179095,36.7140427
"775","Edison","Huntington Beach","CA","USA","Edison, Huntington Beach, CA","Edison, Huntington Beach, CA",-117.9718484,33.6522057
"776","Edison","Stockton","CA","USA","Edison, Stockton, CA","Edison, Stockton, CA",-121.2871979,37.9377571
"777","Eisenhower Senior","Rialto","CA","USA","Eisenhower Senior, Rialto, CA","Eisenhower Senior, Rialto, CA",-117.3779619,34.1235881
"778","El Camino","Oceanside","CA","USA","El Camino, Oceanside, CA","El Camino, Oceanside, CA",-117.3189045,33.2175617
"779","El Camino Real Senior","Woodland Hills","CA","USA","El Camino Real Senior, Woodland Hills, CA","El Camino Real Senior, Woodland Hills, CA",-118.6431016,34.1694892
"780","El Capitan","Lakeside","CA","USA","El Capitan, Lakeside, CA","El Capitan, Lakeside, CA",-116.9164494,32.8683679
"781","El Cerrito","El Cerrito","CA","USA","El Cerrito, El Cerrito, CA","El Cerrito, El Cerrito, CA",-122.310765,37.9161326
"782","El Diamante","Visalia","CA","USA","El Diamante, Visalia, CA","El Diamante, Visalia, CA",-119.3472028,36.3059673
"783","El Dorado","Placentia","CA","USA","El Dorado, Placentia, CA","El Dorado, Placentia, CA",-117.8555898,33.8924447
"784","El Dorado","Placerville","CA","USA","El Dorado, Placerville, CA","El Dorado, Placerville, CA",-120.798546,38.7296252
"785","El Modena","Orange","CA","USA","El Modena, Orange, CA","El Modena, Orange, CA",-117.8094995,33.7877948
"786","El Molino","Forestville","CA","USA","El Molino, Forestville, CA","El Molino, Forestville, CA",-122.8896423,38.4815086
"787","El Segundo","El Segundo","CA","USA","El Segundo, El Segundo, CA","El Segundo, El Segundo, CA",-118.4164652,33.9191799
"788","El Toro","Lake Forest","CA","USA","El Toro, Lake Forest, CA","El Toro, Lake Forest, CA",-117.6861023,33.6469437
"789","Eleanor Roosevelt","Corona","CA","USA","Eleanor Roosevelt, Corona, CA","Eleanor Roosevelt, Corona, CA",-117.5686035,33.9530682
"790","Eleanor Roosevelt","Los Angeles","CA","USA","Eleanor Roosevelt, Los Angeles, CA","Eleanor Roosevelt, Los Angeles, CA",-117.5686035,33.9530682
"791","Eleanor Roosevelt",NA,"CA","USA","Eleanor Roosevelt, NA, CA","Eleanor Roosevelt, CA",-117.5686035,33.9530682
"792","Elk Grove","Elk Grove","CA","USA","Elk Grove, Elk Grove, CA","Elk Grove, Elk Grove, CA",-121.3716178,38.4087993
"793","Elsinore","Wildomar","CA","USA","Elsinore, Wildomar, CA","Elsinore, Wildomar, CA",-117.2794218,33.6534292
"794","Encinal","Alameda","CA","USA","Encinal, Alameda, CA","Encinal, Alameda, CA",-122.2895291,37.7726346
"795","Enterprise","Redding","CA","USA","Enterprise, Redding, CA","Enterprise, Redding, CA",-122.366769,40.5705861
"796","Ernest Righetti","Santa Maria","CA","USA","Ernest Righetti, Santa Maria, CA","Ernest Righetti, Santa Maria, CA",-120.4212692,34.8844006
"797","Escondido","Escondido","CA","USA","Escondido, Escondido, CA","Escondido, Escondido, CA",-117.086421,33.1192068
